,Appartenance EP,Name,Coordonnée X,Coordonnée Y,Etablissement sensible,CATAEU2010,Situation relative à une zone rurale ou autre,Commune code,City_name,Commune et arrondissement code,Commune et arrondissement nom,Département code,Département nom,Académie code,Académie nom,Région code,Région nom,Région 2016 code,Région 2016 nom,Nb élèves,Nb 6èmes,Nb 5èmes,Nb 4èmes générales,Nb 3èmes générales,Nb 6ème SEGPA,Nb 5ème SEGPA,Nb 4ème SEGPA,Nb 3ème SEGPA,Nb SEGPA,Nb 3èmes générales retardataires,Nb divisions,Nb 6èmes provenant d'une école EP,Nb 5èmes 4èmes et 3èmes générales Latin ou Grec,Nb 5èmes 4èmes et 3èmes générales,Nb élèves pratiquant langue rare,Nb 6èmes bilangues,Nb 6èmes 5èmes 4èmes et 3èmes générales sections européennes et internationales,Nb 6èmes 5èmes 4èmes et 3èmes générales,Nb 3émes générales et insertion rentrée précédente passés en 2nde GT,Nb 3émes générales et insertion rentrée précédente passés en cycle professionnel,Longitude,Latitude,Position,target
565,HEP,amiral de rigny,912665.1,6845812.4,NON,111.0,urbain,54528,toul,54528,TOUL,54,MEURTHE-ET-MOSELLE,12.0,NANCY-METZ,41,LORRAINE,44,GRAND-EST,482.0,108.0,119.0,122.0,124.0,0.0,0.0,0.0,0.0,0.0,16.0,19.0,0.0,16.0,0.0,473.0,106.0,20.0,140.0,5.8890957,48.6774515,5.889095663947054,48.677451593445255,"48.6774515934,5.88909566395",95.6
313,HEP,jules verne,355005.1,6689619.8,NON,111.0,urbain,44109,nantes,44109,NANTES,44,LOIRE-ATLANTIQUE,17.0,NANTES,52,PAYS DE LA LOIRE,52,PAYS-DE-LA-LOIRE,404.0,77.0,95.0,113.0,119.0,0.0,0.0,0.0,0.0,0.0,10.0,15.0,84.0,0.0,0.0,404.0,86.0,10.0,101.0,-1.5610761,47.2171741,-1.561076058164574,47.2171741781296,"47.2171741781,-1.56107605816",87.3
601,HEP,albert camus,637334.2,7068125.0,NON,112.0,intermédiaire,62534,lumbres,62534,LUMBRES,62,PAS-DE-CALAIS,9.0,LILLE,31,NORD-PAS-DE-CALAIS,32,HAUTS-DE-FRANCE,797.0,196.0,207.0,192.0,144.0,6.0,16.0,10.0,15.0,47.0,20.0,32.0,0.0,0.0,0.0,739.0,128.0,54.0,191.0,2.1144429,50.7067201,2.1144429165676217,50.70672017468774,"50.7067201747,2.11444291657",91.7
233,HEP,jacques brel,861666.4,6473135.3,NON,221.0,intermédiaire,38034,beaurepaire,38034,BEAUREPAIRE,38,ISERE,8.0,GRENOBLE,82,RHONE-ALPES,84,AUVERGNE-ET-RHONE-ALPES,606.0,170.0,139.0,155.0,142.0,0.0,0.0,0.0,0.0,0.0,25.0,23.0,122.0,13.0,0.0,606.0,76.0,39.0,147.0,5.0643295,45.3385816,5.064329547899554,45.338581612659375,"45.3385816127,5.0643295479",77.4
3912,HEP,jacques prevert,612683.8,7013615.0,NON,120.0,intermédiaire,80598,nouvion,80598,NOUVION,80,SOMME,20.0,AMIENS,22,PICARDIE,32,HAUTS-DE-FRANCE,313.0,84.0,86.0,72.0,71.0,0.0,0.0,0.0,0.0,0.0,7.0,13.0,0.0,0.0,0.0,313.0,52.0,17.0,90.0,1.7780653000000002,50.2145015,1.7780652548941926,50.21450153526721,"50.2145015353,1.77806525489",85.6
931,HEP,francoise sagan,642763.4,6900449.3,NON,112.0,intermédiaire,60088,bornel,60088,BORNEL,60,OISE,20.0,AMIENS,22,PICARDIE,32,HAUTS-DE-FRANCE,461.0,103.0,120.0,108.0,117.0,0.0,0.0,0.0,0.0,0.0,13.0,18.0,0.0,8.0,0.0,448.0,84.0,36.0,137.0,2.2147235,49.2012037,2.214723481899691,49.20120374816984,"49.2012037482,2.2147234819",97.6
3450,REP,europa,836688.8,6385767.0,NON,111.0,urbain,26198,montelimar,26198,MONTELIMAR,26,DROME,8.0,GRENOBLE,82,RHONE-ALPES,84,AUVERGNE-ET-RHONE-ALPES,602.0,159.0,157.0,136.0,150.0,0.0,0.0,0.0,0.0,0.0,35.0,28.0,134.0,21.0,18.0,602.0,99.0,58.0,169.0,4.7211869,44.5575714,4.721186945530264,44.55757149788673,"44.5575714979,4.72118694553",87.3
2344,HEP,jean monnet,639918.7,6279013.5,NON,111.0,urbain,81065,castres,81065,CASTRES,81,TARN,16.0,TOULOUSE,73,MIDI-PYRENEES,76,OCCITANIE,618.0,132.0,125.0,123.0,136.0,18.0,24.0,18.0,30.0,90.0,16.0,28.0,42.0,22.0,0.0,516.0,85.0,35.0,133.0,2.2560254,43.6076269,2.25602540702277,43.6076269151538,"43.6076269152,2.25602540702",85.9
111,HEP,jean rostand,343008.0,6293604.2,NON,211.0,intermédiaire,40065,capbreton,40065,CAPBRETON,40,LANDES,4.0,BORDEAUX,72,AQUITAINE,75,NOUVELLE-AQUITAINE,607.0,137.0,134.0,145.0,135.0,7.0,16.0,17.0,16.0,56.0,10.0,25.0,0.0,0.0,0.0,551.0,122.0,23.0,161.0,-1.4261874,43.6514071,-1.4261873904881688,43.65140714672046,"43.6514071467,-1.42618739049",88.9
2517,REPPLUS,ampere,831208.8,6287399.9,NON,111.0,urbain,13004,arles,13004,ARLES,13,BOUCHES-DU-RHONE,2.0,AIX-MARSEILLE,93,PROVENCE-ALPES-COTE D'AZUR,93,PROVENCE-ALPES-COTE-D'AZUR,606.0,166.0,160.0,148.0,132.0,0.0,0.0,0.0,0.0,0.0,39.0,27.0,116.0,0.0,0.0,606.0,72.0,47.0,126.0,4.6266897,43.6734724,4.6266896674353095,43.67347246794885,"43.6734724679,4.62668966744",83.2
1089,HEP,andre malraux,1055473.6,6850926.4,NON,112.0,intermédiaire,67519,la wantzenau,67519,LA WANTZENAU,67,BAS-RHIN,15.0,STRASBOURG,42,ALSACE,44,GRAND-EST,518.0,112.0,140.0,134.0,127.0,0.0,0.0,0.0,0.0,0.0,13.0,19.0,16.0,83.0,0.0,513.0,90.0,17.0,115.0,7.8295575,48.6606378,7.829557456117059,48.6606378420946,"48.6606378421,7.82955745612",94.8
2935,HEP,fontbruant,407088.1,6531599.0,NON,120.0,intermédiaire,17387,saint porchaire,17387,SAINT-PORCHAIRE,17,CHARENTE-MARITIME,13.0,POITIERS,54,POITOU-CHARENTES,75,NOUVELLE-AQUITAINE,504.0,149.0,109.0,112.0,121.0,0.0,0.0,0.0,0.0,0.0,22.0,20.0,0.0,0.0,0.0,491.0,66.0,30.0,110.0,-0.7739033000000001,45.8210195,-0.7739032875470578,45.82101953628735,"45.8210195363,-0.773903287547",85.0
230,HEP,porte du medoc,416106.3,6434001.8,NON,111.0,urbain,33312,parempuyre,33312,PAREMPUYRE,33,GIRONDE,4.0,BORDEAUX,72,AQUITAINE,75,NOUVELLE-AQUITAINE,788.0,232.0,185.0,197.0,174.0,0.0,0.0,0.0,0.0,0.0,10.0,29.0,50.0,0.0,0.0,788.0,109.0,35.0,156.0,-0.6005804,44.94696029999999,-0.6005804419913837,44.946960370834454,"44.9469603708,-0.600580441991",87.7
1610,HEP,jules verne,711604.2,7072352.3,NON,111.0,urbain,59426,neuville en ferrain,59426,NEUVILLE-EN-FERRAIN,59,NORD,9.0,LILLE,31,NORD-PAS-DE-CALAIS,32,HAUTS-DE-FRANCE,365.0,87.0,85.0,85.0,100.0,0.0,0.0,0.0,0.0,0.0,18.0,14.0,73.0,15.0,0.0,357.0,45.0,21.0,71.0,3.1641147000000003,50.7476967,3.1641146903771067,50.747696713508816,"50.7476967135,3.16411469038",94.0
1564,HEP,henri matisse,647234.7,6858821.2,NON,111.0,urbain,92040,issy les moulineaux,92040,ISSY-LES-MOULINEAUX,92,HAUTS-DE-SEINE,25.0,VERSAILLES,11,ILE-DE-FRANCE,11,ILE-DE-FRANCE,536.0,136.0,134.0,127.0,129.0,0.0,0.0,0.0,0.0,0.0,13.0,20.0,35.0,31.0,0.0,526.0,123.0,17.0,143.0,2.2812638,48.8272887,2.281263836452255,48.8272887011151,"48.8272887011,2.28126383645",89.9
472,HEP,pierre et marie curie,462447.7,6879061.7,NON,112.0,intermédiaire,14516,potigny,14516,POTIGNY,14,CALVADOS,5.0,CAEN,25,BASSE-NORMANDIE,28,NORMANDIE,327.0,100.0,76.0,69.0,82.0,0.0,0.0,0.0,0.0,0.0,7.0,13.0,0.0,0.0,0.0,327.0,50.0,25.0,90.0,-0.2453889,48.9675614,-0.24538891100637386,48.96756142099957,"48.967561421,-0.245388911006",83.0
2927,HEP,paul cezanne,948950.2,6260716.5,NON,111.0,urbain,83023,brignoles,83023,BRIGNOLES,83,VAR,23.0,NICE,93,PROVENCE-ALPES-COTE D'AZUR,93,PROVENCE-ALPES-COTE-D'AZUR,624.0,173.0,133.0,147.0,171.0,0.0,0.0,0.0,0.0,0.0,38.0,26.0,95.0,22.0,0.0,624.0,95.0,43.0,187.0,6.0724193,43.40197379999999,6.072419314943688,43.40197384214882,"43.4019738421,6.07241931494",79.2
2409,REP,du vallon,799433.9,6651919.2,NON,211.0,intermédiaire,71014,autun,71014,AUTUN,71,SAONE-ET-LOIRE,7.0,DIJON,26,BOURGOGNE,27,BOURGOGNE-ET-FRANCHE-COMTE,486.0,112.0,94.0,118.0,92.0,13.0,12.0,17.0,15.0,57.0,21.0,22.0,0.0,11.0,0.0,416.0,58.0,30.0,106.0,4.3076665,46.9600695,4.307666548085998,46.960069544501025,"46.9600695445,4.30766654809",97.1
3107,HEP,paul fort,646884.6,6837926.9,NON,111.0,urbain,91425,montlhery,91425,MONTLHERY,91,ESSONNE,25.0,VERSAILLES,11,ILE-DE-FRANCE,11,ILE-DE-FRANCE,762.0,200.0,171.0,181.0,196.0,0.0,0.0,0.0,0.0,0.0,20.0,28.0,0.0,33.0,0.0,748.0,123.0,48.0,188.0,2.2790936,48.6393406,2.2790935906470446,48.639340674431836,"48.6393406744,2.27909359065",93.4
3940,HEP,honore de balzac,483838.0,6819382.4,NON,111.0,urbain,61001,alencon,61001,ALENCON,61,ORNE,5.0,CAEN,25,BASSE-NORMANDIE,28,NORMANDIE,575.0,142.0,109.0,131.0,132.0,10.0,15.0,12.0,14.0,51.0,14.0,23.0,0.0,25.0,0.0,514.0,74.0,22.0,117.0,0.07672810000000001,48.4387042,0.07672807136076598,48.43870422943238,"48.4387042294,0.0767280713608",83.0
1419,REPPLUS,jules verne,621067.3,6876089.6,OUI,111.0,urbain,78440,les mureaux,78440,LES MUREAUX,78,YVELINES,25.0,VERSAILLES,11,ILE-DE-FRANCE,11,ILE-DE-FRANCE,449.0,137.0,126.0,108.0,78.0,0.0,0.0,0.0,0.0,0.0,20.0,21.0,0.0,19.0,0.0,449.0,32.0,31.0,56.0,1.9216526000000005,48.9798929,1.9216525522671688,48.97989298105395,"48.9798929811,1.92165255227",78.9
1515,HEP,alain savary,769538.3,6296330.5,NON,112.0,intermédiaire,34276,saint mathieu de treviers,34276,SAINT-MATHIEU-DE-TREVIERS,34,HERAULT,11.0,MONTPELLIER,91,LANGUEDOC-ROUSSILLON,76,OCCITANIE,537.0,157.0,123.0,128.0,129.0,0.0,0.0,0.0,0.0,0.0,6.0,21.0,0.0,44.0,0.0,537.0,84.0,14.0,109.0,3.8634147,43.7625738,3.863414658842224,43.76257380919797,"43.7625738092,3.86341465884",96.2
1569,HEP,amedee dunois,664588.0,6850260.3,NON,111.0,urbain,94004,boissy saint leger,94004,BOISSY-SAINT-LEGER,94,VAL-DE-MARNE,24.0,CRETEIL,11,ILE-DE-FRANCE,11,ILE-DE-FRANCE,356.0,84.0,85.0,86.0,101.0,0.0,0.0,0.0,0.0,0.0,25.0,13.0,0.0,19.0,0.0,356.0,60.0,22.0,85.0,2.5183437,48.7514825,2.5183437048060897,48.75148256790838,"48.7514825679,2.51834370481",96.3
3489,REP,edmond michelet,654281.9,6866132.7,NON,111.0,urbain,75056,paris,75119,PARIS 19E,75,PARIS,1.0,PARIS,11,ILE-DE-FRANCE,11,ILE-DE-FRANCE,424.0,91.0,111.0,113.0,97.0,0.0,0.0,0.0,0.0,0.0,17.0,19.0,0.0,0.0,0.0,412.0,73.0,32.0,111.0,2.3764657,48.89357860000001,2.3764657013006585,48.893578613836574,"48.8935786138,2.3764657013",70.3
361,HEP,penanroz,195275.9,6772900.3,NON,300.0,rural,29217,pont aven,29217,PONT-AVEN,29,FINISTERE,14.0,RENNES,53,BRETAGNE,53,BRETAGNE,199.0,56.0,46.0,55.0,42.0,0.0,0.0,0.0,0.0,0.0,6.0,8.0,0.0,0.0,0.0,199.0,49.0,14.0,68.0,-3.7582603,47.8619855,-3.758260299611087,47.861985533618096,"47.8619855336,-3.75826029961",86.4
135,HEP,les molieres,618930.6,6847225.2,NON,112.0,intermédiaire,78220,les essarts le roi,78220,LES ESSARTS-LE-ROI,78,YVELINES,25.0,VERSAILLES,11,ILE-DE-FRANCE,11,ILE-DE-FRANCE,794.0,200.0,192.0,184.0,207.0,0.0,0.0,0.0,0.0,0.0,24.0,29.0,0.0,0.0,0.0,783.0,139.0,34.0,186.0,1.8979687,48.7200675,1.897968680332593,48.720067528321934,"48.7200675283,1.89796868033",95.6
1134,HEP,francois villon,764456.9,6288508.3,NON,111.0,urbain,34255,saint gely du fesc,34255,SAINT-GELY-DU-FESC,34,HERAULT,11.0,MONTPELLIER,91,LANGUEDOC-ROUSSILLON,76,OCCITANIE,664.0,159.0,173.0,178.0,154.0,0.0,0.0,0.0,0.0,0.0,16.0,24.0,0.0,26.0,0.0,664.0,152.0,12.0,174.0,3.7993433,43.6926717,3.799343344740314,43.6926717779434,"43.6926717779,3.79934334474",94.8
2236,HEP,charles peguy,635445.7,6858833.3,NON,111.0,urbain,78158,le chesnay,78158,LE CHESNAY,78,YVELINES,25.0,VERSAILLES,11,ILE-DE-FRANCE,11,ILE-DE-FRANCE,827.0,230.0,177.0,194.0,226.0,0.0,0.0,0.0,0.0,0.0,24.0,29.0,0.0,44.0,0.0,827.0,170.0,29.0,215.0,2.1206916,48.82632460000001,2.120691623967208,48.82632467812417,"48.8263246781,2.12069162397",83.5
1151,HEP,condorcet,645169.6,6923613.4,NON,112.0,intermédiaire,60103,bresles,60103,BRESLES,60,OISE,20.0,AMIENS,22,PICARDIE,32,HAUTS-DE-FRANCE,524.0,142.0,130.0,131.0,109.0,0.0,0.0,0.0,0.0,0.0,12.0,19.0,9.0,24.0,0.0,512.0,74.0,34.0,125.0,2.2446942,49.4096334,2.2446942346400447,49.40963345110768,"49.4096334511,2.24469423464",90.8
2716,REP,lamartine,718856.6,7006735.5,NON,111.0,urbain,59122,cambrai,59122,CAMBRAI,59,NORD,9.0,LILLE,31,NORD-PAS-DE-CALAIS,32,HAUTS-DE-FRANCE,533.0,122.0,117.0,102.0,111.0,0.0,13.0,18.0,15.0,46.0,27.0,26.0,0.0,10.0,0.0,452.0,58.0,35.0,103.0,3.2635848,50.1585086,3.2635848242864465,50.15850868182606,"50.1585086818,3.26358482429",90.1
3245,HEP,francois rabelais,697137.8,7035025.6,NON,111.0,urbain,62427,henin beaumont,62427,HENIN-BEAUMONT,62,PAS-DE-CALAIS,9.0,LILLE,31,NORD-PAS-DE-CALAIS,32,HAUTS-DE-FRANCE,588.0,142.0,135.0,132.0,114.0,8.0,17.0,16.0,13.0,54.0,11.0,29.0,0.0,22.0,0.0,523.0,81.0,36.0,120.0,2.9597895,50.4127928,2.95978954211448,50.412792833001966,"50.412792833,2.95978954211",84.8
2641,HEP,leon gambetta,656186.6,6863494.7,NON,111.0,urbain,75056,paris,75120,PARIS 20E,75,PARIS,1.0,PARIS,11,ILE-DE-FRANCE,11,ILE-DE-FRANCE,537.0,120.0,135.0,136.0,136.0,0.0,0.0,0.0,0.0,0.0,20.0,20.0,9.0,26.0,0.0,527.0,93.0,33.0,138.0,2.4027144,48.8699881,2.4027144170927617,48.869988189742,"48.8699881897,2.40271441709",89.7
1053,HEP,jean cocteau,1048773.7,6298929.6,NON,111.0,urbain,06011,beaulieu sur mer,06011,BEAULIEU-SUR-MER,06,ALPES-MARITIMES,23.0,NICE,93,PROVENCE-ALPES-COTE D'AZUR,93,PROVENCE-ALPES-COTE-D'AZUR,547.0,160.0,134.0,130.0,123.0,0.0,0.0,0.0,0.0,0.0,18.0,21.0,226.0,0.0,0.0,547.0,94.0,17.0,126.0,7.328114,43.70334920000001,7.328113966252975,43.70334923276256,"43.7033492328,7.32811396625",99.2
3557,HEP,voltaire,627038.2,6386503.0,NON,111.0,urbain,12052,capdenac gare,12052,CAPDENAC-GARE,12,AVEYRON,16.0,TOULOUSE,73,MIDI-PYRENEES,76,OCCITANIE,251.0,65.0,55.0,67.0,64.0,0.0,0.0,0.0,0.0,0.0,4.0,11.0,0.0,0.0,0.0,251.0,49.0,11.0,64.0,2.0810522,44.5737869,2.0810522498746447,44.573786958479474,"44.5737869585,2.08105224987",95.2
22,HEP,louis aragon,673870.4,6860855.7,NON,111.0,urbain,77468,torcy,77468,TORCY,77,SEINE-ET-MARNE,24.0,CRETEIL,11,ILE-DE-FRANCE,11,ILE-DE-FRANCE,509.0,131.0,144.0,119.0,104.0,0.0,0.0,0.0,0.0,0.0,23.0,22.0,0.0,37.0,0.0,498.0,79.0,44.0,132.0,2.6439464,48.8472155,2.6439464266283634,48.847215587258255,"48.8472155873,2.64394642663",87.6
3537,REPPLUS,pablo neruda,565417.8,6880127.8,OUI,111.0,urbain,27229,evreux,27229,EVREUX,27,EURE,21.0,ROUEN,23,HAUTE-NORMANDIE,28,NORMANDIE,423.0,126.0,105.0,84.0,108.0,0.0,0.0,0.0,0.0,0.0,38.0,21.0,0.0,23.0,0.0,423.0,49.0,34.0,104.0,1.160324,49.0069533,1.1603240039988747,49.00695330347283,"49.0069533035,1.160324004",71.7
1593,HEP,mathurin meheut,351007.3,6801193.0,NON,111.0,urbain,35173,melesse,35173,MELESSE,35,ILLE-ET-VILAINE,14.0,RENNES,53,BRETAGNE,53,BRETAGNE,404.0,99.0,96.0,95.0,114.0,0.0,0.0,0.0,0.0,0.0,5.0,16.0,44.0,0.0,0.0,404.0,56.0,21.0,85.0,-1.7015343,48.2175513,-1.7015342742626325,48.21755136089461,"48.2175513609,-1.70153427426",97.6
1808,HEP,marcel pagnol,644696.4,6877861.4,NON,111.0,urbain,95491,le plessis bouchard,95491,LE PLESSIS-BOUCHARD,95,VAL-D'OISE,25.0,VERSAILLES,11,ILE-DE-FRANCE,11,ILE-DE-FRANCE,424.0,110.0,120.0,105.0,89.0,0.0,0.0,0.0,0.0,0.0,6.0,15.0,0.0,0.0,0.0,424.0,98.0,13.0,120.0,2.2442084,48.9982918,2.244208409032105,48.99829180030128,"48.9982918003,2.24420840903",94.9
695,REP,jean bauhin,989768.9,6715965.3,NON,111.0,urbain,25031,audincourt,25031,AUDINCOURT,25,DOUBS,3.0,BESANCON,43,FRANCHE-COMTE,27,BOURGOGNE-ET-FRANCHE-COMTE,568.0,129.0,123.0,128.0,112.0,29.0,17.0,16.0,14.0,76.0,14.0,27.0,144.0,26.0,0.0,492.0,59.0,32.0,104.0,6.8491752,47.4804715,6.849175176557141,47.48047159270608,"47.4804715927,6.84917517656",66.3
1867,HEP,les trois moulins,628123.8,6835419.7,NON,112.0,intermédiaire,78087,bonnelles,78087,BONNELLES,78,YVELINES,25.0,VERSAILLES,11,ILE-DE-FRANCE,11,ILE-DE-FRANCE,347.0,81.0,89.0,93.0,84.0,0.0,0.0,0.0,0.0,0.0,6.0,14.0,1.0,0.0,0.0,347.0,62.0,12.0,81.0,2.0249062,48.6149774,2.024906177706363,48.61497744479607,"48.6149774448,2.02490617771",91.3
420,HEP,guy liard,457483.6,6902058.2,NON,111.0,urbain,14437,mondeville,14437,MONDEVILLE,14,CALVADOS,5.0,CAEN,25,BASSE-NORMANDIE,28,NORMANDIE,286.0,74.0,73.0,86.0,53.0,0.0,0.0,0.0,0.0,0.0,4.0,10.0,0.0,12.0,0.0,286.0,52.0,22.0,83.0,-0.3263553,49.1722966,-0.3263553159104593,49.17229660343102,"49.1722966034,-0.32635531591",93.9
2401,REP,pablo picasso,562349.4,6921562.6,OUI,111.0,urbain,76575,saint etienne du rouvray,76575,SAINT-ETIENNE-DU-ROUVRAY,76,SEINE MARITIME,21.0,ROUEN,23,HAUTE-NORMANDIE,28,NORMANDIE,376.0,92.0,89.0,98.0,97.0,0.0,0.0,0.0,0.0,0.0,8.0,17.0,32.0,0.0,0.0,376.0,55.0,37.0,96.0,1.1048047,49.3787084,1.10480465339136,49.37870843212924,"49.3787084321,1.10480465339",80.2
460,HEP,du fenouillet,950558.3,6232591.2,NON,111.0,urbain,83047,la crau,83047,LA CRAU,83,VAR,23.0,NICE,93,PROVENCE-ALPES-COTE D'AZUR,93,PROVENCE-ALPES-COTE-D'AZUR,791.0,192.0,198.0,209.0,192.0,0.0,0.0,0.0,0.0,0.0,28.0,28.0,153.0,0.0,0.0,791.0,124.0,43.0,199.0,6.0787188,43.1486018,6.078718803678645,43.14860179950941,"43.1486017995,6.07871880368",87.2
1067,HEP,jean bene,733738.0,6262254.0,NON,211.0,intermédiaire,34199,pezenas,34199,PEZENAS,34,HERAULT,11.0,MONTPELLIER,91,LANGUEDOC-ROUSSILLON,76,OCCITANIE,592.0,130.0,155.0,137.0,103.0,11.0,16.0,14.0,14.0,55.0,19.0,24.0,13.0,17.0,0.0,525.0,119.0,13.0,160.0,3.4166842000000006,43.45858370000001,3.4166841551971907,43.45858375526504,"43.4585837553,3.4166841552",90.6
87,HEP,george sand,845175.0,6575525.2,NON,112.0,intermédiaire,01306,pont de veyle,01306,PONT-DE-VEYLE,01,AIN,10.0,LYON,82,RHONE-ALPES,84,AUVERGNE-ET-RHONE-ALPES,537.0,132.0,134.0,133.0,131.0,0.0,0.0,0.0,0.0,0.0,13.0,22.0,0.0,0.0,0.0,530.0,81.0,19.0,127.0,4.8850386,46.2640084,4.885038610062535,46.264008476218116,"46.2640084762,4.88503861006",92.1
282,HEP,du fort,665555.1,6852367.2,NON,111.0,urbain,94071,sucy en brie,94071,SUCY-EN-BRIE,94,VAL-DE-MARNE,24.0,CRETEIL,11,ILE-DE-FRANCE,11,ILE-DE-FRANCE,671.0,171.0,153.0,140.0,148.0,13.0,16.0,13.0,17.0,59.0,33.0,28.0,2.0,29.0,0.0,612.0,109.0,34.0,163.0,2.5313273,48.7704839,2.531327313338501,48.7704839622425,"48.7704839622,2.53132731334",75.3
2655,REP,les indes,816245.6,6848791.1,NON,211.0,intermédiaire,51649,vitry le francois,51649,VITRY-LE-FRANCOIS,51,MARNE,19.0,REIMS,21,CHAMPAGNE-ARDENNE,44,GRAND-EST,453.0,97.0,110.0,96.0,86.0,16.0,14.0,15.0,11.0,56.0,11.0,22.0,1.0,0.0,0.0,389.0,69.0,18.0,101.0,4.580522900000001,48.72877570000001,4.580522906320076,48.72877572205456,"48.7287757221,4.58052290632",97.9
1499,HEP,andre chenier,647089.4,6235003.3,NON,111.0,urbain,11069,carcassonne,11069,CARCASSONNE,11,AUDE,11.0,MONTPELLIER,91,LANGUEDOC-ROUSSILLON,76,OCCITANIE,343.0,81.0,81.0,73.0,108.0,0.0,0.0,0.0,0.0,0.0,13.0,13.0,0.0,40.0,0.0,343.0,73.0,19.0,102.0,2.3493052000000003,43.2122787,2.349305163895949,43.21227876572663,"43.2122787657,2.3493051639",92.0
3979,HEP,capouchine,809175.1,6303535.1,NON,111.0,urbain,30189,nimes,30189,NIMES,30,GARD,11.0,MONTPELLIER,91,LANGUEDOC-ROUSSILLON,76,OCCITANIE,545.0,150.0,130.0,135.0,119.0,0.0,0.0,0.0,0.0,0.0,33.0,22.0,42.0,13.0,0.0,534.0,93.0,55.0,163.0,4.357018599999999,43.8223855,4.357018598929858,43.82238550384598,"43.8223855038,4.35701859893",67.3
4058,HEP,nicolas de stael,658887.5,6855712.9,NON,111.0,urbain,94046,maisons alfort,94046,MAISONS-ALFORT,94,VAL-DE-MARNE,24.0,CRETEIL,11,ILE-DE-FRANCE,11,ILE-DE-FRANCE,678.0,166.0,155.0,148.0,145.0,13.0,21.0,15.0,15.0,64.0,19.0,28.0,0.0,30.0,0.0,614.0,102.0,30.0,143.0,2.4402851,48.8001833,2.4402850830258136,48.80018332080243,"48.8001833208,2.44028508303",78.0
1739,HEP,gerard philipe,850499.1,6513452.8,NON,111.0,urbain,69290,saint priest,69290,SAINT-PRIEST,69,RHONE,10.0,LYON,82,RHONE-ALPES,84,AUVERGNE-ET-RHONE-ALPES,735.0,156.0,205.0,162.0,144.0,9.0,14.0,16.0,16.0,55.0,28.0,29.0,54.0,45.0,0.0,667.0,111.0,19.0,148.0,4.934401599999998,45.7040574,4.934401632438308,45.704057419475525,"45.7040574195,4.93440163244",84.9
859,HEP,des roises,798615.4,6807621.9,NON,112.0,intermédiaire,10287,piney,10287,PINEY,10,AUBE,19.0,REIMS,21,CHAMPAGNE-ARDENNE,44,GRAND-EST,311.0,85.0,82.0,71.0,73.0,0.0,0.0,0.0,0.0,0.0,10.0,12.0,0.0,0.0,0.0,311.0,45.0,11.0,68.0,4.3314279,48.36142150000001,4.3314279141806615,48.36142158895757,"48.361421589,4.33142791418",95.5
533,HEP,jean bullant,653755.6,6880986.8,NON,111.0,urbain,95205,ecouen,95205,ECOUEN,95,VAL-D'OISE,25.0,VERSAILLES,11,ILE-DE-FRANCE,11,ILE-DE-FRANCE,393.0,83.0,91.0,75.0,90.0,9.0,10.0,15.0,15.0,49.0,14.0,18.0,56.0,0.0,0.0,339.0,70.0,6.0,81.0,2.3676657000000003,49.02711,2.3676656555943016,49.027110040930566,"49.0271100409,2.36766565559",91.3
4101,HEP,roland garros,1044116.2,6299111.8,NON,111.0,urbain,06088,nice,06088,NICE,06,ALPES-MARITIMES,23.0,NICE,93,PROVENCE-ALPES-COTE D'AZUR,93,PROVENCE-ALPES-COTE-D'AZUR,687.0,171.0,155.0,182.0,179.0,0.0,0.0,0.0,0.0,0.0,34.0,26.0,122.0,50.0,0.0,687.0,113.0,43.0,169.0,7.2705522,43.707267,7.270552189744964,43.7072670408749,"43.7072670409,7.27055218974",86.2
3480,REP,victor hugo,641682.8,6866224.1,NON,111.0,urbain,92050,nanterre,92050,NANTERRE,92,HAUTS-DE-SEINE,25.0,VERSAILLES,11,ILE-DE-FRANCE,11,ILE-DE-FRANCE,464.0,131.0,101.0,123.0,109.0,0.0,0.0,0.0,0.0,0.0,16.0,21.0,0.0,26.0,0.0,464.0,53.0,45.0,101.0,2.2046285,48.8933825,2.2046284847018778,48.89338255831274,"48.8933825583,2.2046284847",76.5
1829,HEP,jean gay,592319.2,6285431.9,NON,112.0,intermédiaire,31573,verfeil,31573,VERFEIL,31,HAUTE-GARONNE,16.0,TOULOUSE,73,MIDI-PYRENEES,76,OCCITANIE,379.0,102.0,107.0,88.0,82.0,0.0,0.0,0.0,0.0,0.0,3.0,14.0,0.0,0.0,56.0,379.0,74.0,11.0,93.0,1.6653546,43.6597369,1.6653545520428783,43.65973698500473,"43.659736985,1.66535455204",93.5
3035,HEP,albert camus,629541.3,6679627.1,NON,111.0,urbain,18279,vierzon,18279,VIERZON,18,CHER,18.0,ORLEANS-TOURS,24,CENTRE-VAL-DE-LOIRE,24,CENTRE-VAL-DE-LOIRE,675.0,159.0,163.0,137.0,144.0,16.0,10.0,16.0,18.0,60.0,18.0,29.0,0.0,25.0,0.0,603.0,85.0,24.0,127.0,2.0690514,47.2132005,2.069051366253388,47.21320055651635,"47.2132005565,2.06905136625",93.3
3340,HEP,jean rostand,478905.7,6854621.8,NON,211.0,intermédiaire,61006,argentan,61006,ARGENTAN,61,ORNE,5.0,CAEN,25,BASSE-NORMANDIE,28,NORMANDIE,400.0,67.0,80.0,71.0,75.0,28.0,23.0,18.0,25.0,94.0,12.0,20.0,0.0,15.0,0.0,293.0,39.0,18.0,72.0,-0.0080563,48.7538005,-0.008056338747603286,48.75380057361153,"48.7538005736,-0.0080563387476",87.0
3395,REP,marguerite duras,643848.6,6868908.0,NON,111.0,urbain,92025,colombes,92025,COLOMBES,92,HAUTS-DE-SEINE,25.0,VERSAILLES,11,ILE-DE-FRANCE,11,ILE-DE-FRANCE,545.0,136.0,136.0,108.0,103.0,9.0,14.0,15.0,14.0,52.0,18.0,26.0,0.0,25.0,0.0,483.0,71.0,31.0,109.0,2.2338101000000004,48.9177097,2.233810144464836,48.91770976091729,"48.9177097609,2.23381014446",92.3
2997,HEP,lucie aubrac,679177.5,6764685.8,NON,111.0,urbain,45338,villemandeur,45338,VILLEMANDEUR,45,LOIRET,18.0,ORLEANS-TOURS,24,CENTRE-VAL-DE-LOIRE,24,CENTRE-VAL-DE-LOIRE,554.0,126.0,127.0,159.0,131.0,0.0,0.0,0.0,0.0,0.0,18.0,21.0,0.0,0.0,0.0,543.0,69.0,31.0,122.0,2.7208946,47.9822294,2.7208946334015174,47.982229491559686,"47.9822294916,2.7208946334",94.9
2661,REP,victor hugo,632163.9,6328396.8,NON,211.0,intermédiaire,81060,carmaux,81060,CARMAUX,81,TARN,16.0,TOULOUSE,73,MIDI-PYRENEES,76,OCCITANIE,386.0,89.0,106.0,95.0,96.0,0.0,0.0,0.0,0.0,0.0,9.0,16.0,15.0,0.0,0.0,386.0,72.0,19.0,99.0,2.1534505,44.0513004,2.1534505462975364,44.051300488108595,"44.0513004881,2.1534505463",87.5
4153,HEP,louis pasteur,860830.0,6269886.0,NON,111.0,urbain,13047,istres,13047,ISTRES,13,BOUCHES-DU-RHONE,2.0,AIX-MARSEILLE,93,PROVENCE-ALPES-COTE D'AZUR,93,PROVENCE-ALPES-COTE-D'AZUR,516.0,117.0,139.0,139.0,121.0,0.0,0.0,0.0,0.0,0.0,13.0,20.0,43.0,0.0,0.0,516.0,109.0,21.0,144.0,4.9883172999999985,43.5098302,4.988317277855479,43.5098302758488,"43.5098302758,4.98831727786",94.4
2468,REP,francois rabelais,655309.7,6853582.8,OUI,111.0,urbain,94081,vitry sur seine,94081,VITRY-SUR-SEINE,94,VAL-DE-MARNE,24.0,CRETEIL,11,ILE-DE-FRANCE,11,ILE-DE-FRANCE,470.0,90.0,110.0,99.0,115.0,14.0,12.0,14.0,16.0,56.0,33.0,22.0,0.0,19.0,0.0,414.0,66.0,38.0,114.0,2.3918013,48.7807883,2.3918013128180684,48.780788317381926,"48.7807883174,2.39180131282",73.2
2817,HEP,catherine bernard,551841.9,6941653.5,NON,112.0,intermédiaire,76057,barentin,76057,BARENTIN,76,SEINE MARITIME,21.0,ROUEN,23,HAUTE-NORMANDIE,28,NORMANDIE,508.0,139.0,130.0,133.0,106.0,0.0,0.0,0.0,0.0,0.0,7.0,19.0,0.0,0.0,0.0,508.0,63.0,36.0,108.0,0.9530288,49.5568665,0.9530288347828314,49.55686651012987,"49.5568665101,0.953028834783",86.7
3867,HEP,lakanal,649052.3,6853264.5,NON,111.0,urbain,92071,sceaux,92071,SCEAUX,92,HAUTS-DE-SEINE,25.0,VERSAILLES,11,ILE-DE-FRANCE,11,ILE-DE-FRANCE,608.0,153.0,156.0,150.0,149.0,0.0,0.0,0.0,0.0,0.0,7.0,20.0,131.0,0.0,0.0,608.0,141.0,4.0,149.0,2.3066853,48.7774618,2.306685322621193,48.777461877868674,"48.7774618779,2.30668532262",100.0
1613,HEP,joseph peyre,435745.6,6279258.1,NON,300.0,rural,64233,garlin,64233,GARLIN,64,PYRENEES-ATLANTIQUES,4.0,BORDEAUX,72,AQUITAINE,75,NOUVELLE-AQUITAINE,279.0,70.0,59.0,77.0,60.0,0.0,0.0,0.0,0.0,0.0,4.0,12.0,8.0,0.0,0.0,266.0,42.0,16.0,69.0,-0.2705596,43.5631273,-0.2705596246636144,43.56312738940486,"43.5631273894,-0.270559624664",95.5
4132,HEP,andre bauchant,543437.4,6723922.8,NON,120.0,intermédiaire,37063,chateau renault,37063,CHATEAU-RENAULT,37,INDRE-ET-LOIRE,18.0,ORLEANS-TOURS,24,CENTRE-VAL-DE-LOIRE,24,CENTRE-VAL-DE-LOIRE,822.0,205.0,208.0,166.0,189.0,4.0,15.0,12.0,11.0,42.0,22.0,38.0,0.0,54.0,0.0,768.0,121.0,45.0,189.0,0.9163272,47.5970918,0.9163271951062152,47.597091816892224,"47.5970918169,0.916327195106",91.7
1420,REPPLUS,youri gagarine,625392.1,6853064.8,OUI,111.0,urbain,78621,trappes,78621,TRAPPES,78,YVELINES,25.0,VERSAILLES,11,ILE-DE-FRANCE,11,ILE-DE-FRANCE,483.0,106.0,114.0,115.0,91.0,9.0,13.0,12.0,12.0,46.0,20.0,23.0,14.0,0.0,0.0,426.0,56.0,37.0,99.0,1.9847736,48.7733637,1.9847735828329367,48.77336376691953,"48.7733637669,1.98477358283",78.1
1487,HEP,saint exupery,648865.1,6829713.7,NON,112.0,intermédiaire,91376,marolles en hurepoix,91376,MAROLLES-EN-HUREPOIX,91,ESSONNE,25.0,VERSAILLES,11,ILE-DE-FRANCE,11,ILE-DE-FRANCE,636.0,158.0,152.0,157.0,157.0,0.0,0.0,0.0,0.0,0.0,12.0,23.0,81.0,22.0,0.0,624.0,130.0,30.0,171.0,2.3069508,48.5656239,2.3069507995868808,48.565623966847674,"48.5656239668,2.30695079959",97.1
942,HEP,jacques brel,977128.6,6562612.4,NON,120.0,intermédiaire,74276,taninges,74276,TANINGES,74,HAUTE SAVOIE,8.0,GRENOBLE,82,RHONE-ALPES,84,AUVERGNE-ET-RHONE-ALPES,431.0,106.0,111.0,110.0,104.0,0.0,0.0,0.0,0.0,0.0,4.0,16.0,224.0,0.0,0.0,431.0,66.0,14.0,97.0,6.5889854,46.1066133,6.58898544051067,46.106613334155334,"46.1066133342,6.58898544051",98.0
4174,HEP,pierre et marie curie,899726.5,6809816.5,NON,221.0,intermédiaire,88321,neufchateau,88321,NEUFCHATEAU,88,VOSGES,12.0,NANCY-METZ,41,LORRAINE,44,GRAND-EST,509.0,115.0,126.0,113.0,104.0,10.0,5.0,12.0,8.0,35.0,13.0,22.0,86.0,20.0,0.0,458.0,84.0,29.0,126.0,5.696769799999998,48.35795870000001,5.6967698290099635,48.35795874669429,"48.3579587467,5.69676982901",89.0
779,REP,victor hugo,667459.2,6859855.5,NON,111.0,urbain,93051,noisy le grand,93051,NOISY-LE-GRAND,93,SEINE-SAINT-DENIS,24.0,CRETEIL,11,ILE-DE-FRANCE,11,ILE-DE-FRANCE,479.0,140.0,126.0,102.0,111.0,0.0,0.0,0.0,0.0,0.0,28.0,22.0,61.0,47.0,0.0,479.0,73.0,19.0,95.0,2.5566627,48.8379287,2.5566627344585777,48.837928725771405,"48.8379287258,2.55666273446",97.8
2507,REP,francois villon,649040.6,6858698.5,OUI,111.0,urbain,75056,paris,75114,PARIS 14E,75,PARIS,1.0,PARIS,11,ILE-DE-FRANCE,11,ILE-DE-FRANCE,480.0,124.0,119.0,118.0,119.0,0.0,0.0,0.0,0.0,0.0,27.0,20.0,63.0,16.0,0.0,480.0,79.0,60.0,143.0,2.3058761000000003,48.8263305,2.3058760872390254,48.82633054806896,"48.8263305481,2.30587608724",96.4
2370,HEP,pierre bonnard,1021923.9,6282578.4,NON,111.0,urbain,06030,le cannet,06030,LE CANNET,06,ALPES-MARITIMES,23.0,NICE,93,PROVENCE-ALPES-COTE D'AZUR,93,PROVENCE-ALPES-COTE-D'AZUR,515.0,136.0,105.0,110.0,111.0,5.0,6.0,14.0,8.0,33.0,21.0,21.0,84.0,0.0,0.0,462.0,90.0,31.0,144.0,6.9852791,43.5691387,6.985279123798042,43.569138733026286,"43.569138733,6.9852791238",86.8
2404,REP,moulin joly,644543.6,6870065.7,OUI,111.0,urbain,92025,colombes,92025,COLOMBES,92,HAUTS-DE-SEINE,25.0,VERSAILLES,11,ILE-DE-FRANCE,11,ILE-DE-FRANCE,499.0,145.0,119.0,124.0,111.0,0.0,0.0,0.0,0.0,0.0,16.0,21.0,7.0,43.0,0.0,499.0,81.0,44.0,133.0,2.2431415,48.9281803,2.2431414753562584,48.928180359455254,"48.9281803595,2.24314147536",86.5
121,HEP,le puy dalon,579363.6,6423027.7,NON,221.0,intermédiaire,46309,souillac,46309,SOUILLAC,46,LOT,16.0,TOULOUSE,73,MIDI-PYRENEES,76,OCCITANIE,286.0,69.0,76.0,73.0,58.0,0.0,0.0,0.0,0.0,0.0,4.0,12.0,0.0,0.0,0.0,276.0,44.0,9.0,60.0,1.4718123,44.8959301,1.4718123420919862,44.89593018464448,"44.8959301846,1.47181234209",81.4
887,HEP,le castel,965922.8,6896444.0,NON,120.0,intermédiaire,57413,longeville les saint avold,57413,LONGEVILLE-LES-SAINT-AVOLD,57,MOSELLE,12.0,NANCY-METZ,41,LORRAINE,44,GRAND-EST,286.0,66.0,77.0,74.0,69.0,0.0,0.0,0.0,0.0,0.0,7.0,12.0,0.0,66.0,0.0,286.0,46.0,16.0,66.0,6.643411099999999,49.1125851,6.643411103272878,49.11258511570962,"49.1125851157,6.64341110327",92.4
3036,HEP,capeyron,411913.0,6423364.9,NON,111.0,urbain,33281,merignac,33281,MERIGNAC,33,GIRONDE,4.0,BORDEAUX,72,AQUITAINE,75,NOUVELLE-AQUITAINE,491.0,107.0,126.0,135.0,123.0,0.0,0.0,0.0,0.0,0.0,12.0,18.0,0.0,22.0,0.0,491.0,80.0,21.0,103.0,-0.647461,44.84956,-0.6474610333265041,44.84956000343972,"44.8495600034,-0.647461033327",82.4
685,REP,frederic joliot curie,712118.5,7032138.0,NON,111.0,urbain,59327,lallaing,59327,LALLAING,59,NORD,9.0,LILLE,31,NORD-PAS-DE-CALAIS,32,HAUTS-DE-FRANCE,378.0,71.0,78.0,87.0,74.0,8.0,14.0,17.0,16.0,55.0,16.0,17.0,0.0,19.0,0.0,310.0,31.0,37.0,70.0,3.1701626,50.3867593,3.1701626382121866,50.3867593419105,"50.3867593419,3.17016263821",81.3
3930,HEP,chambery,416479.7,6412765.2,NON,111.0,urbain,33550,villenave dornon,33550,VILLENAVE-D'ORNON,33,GIRONDE,4.0,BORDEAUX,72,AQUITAINE,75,NOUVELLE-AQUITAINE,639.0,140.0,139.0,143.0,137.0,12.0,15.0,17.0,23.0,67.0,18.0,25.0,0.0,7.0,0.0,559.0,119.0,19.0,147.0,-0.5836358,44.7561107,-0.5836358494665097,44.756110742786056,"44.7561107428,-0.583635849467",91.9
4016,HEP,moliere,710364.8,7062367.7,NON,111.0,urbain,59009,villeneuve dascq,59009,VILLENEUVE-D'ASCQ,59,NORD,9.0,LILLE,31,NORD-PAS-DE-CALAIS,32,HAUTS-DE-FRANCE,471.0,135.0,116.0,109.0,111.0,0.0,0.0,0.0,0.0,0.0,13.0,18.0,0.0,0.0,0.0,471.0,105.0,25.0,135.0,3.1463246,50.6581235,3.1463246006040784,50.658123504587486,"50.6581235046,3.1463246006",98.5
1839,HEP,anne frank,866759.2,6506135.8,NON,112.0,intermédiaire,38537,la verpilliere,38537,LA VERPILLIERE,38,ISERE,8.0,GRENOBLE,82,RHONE-ALPES,84,AUVERGNE-ET-RHONE-ALPES,544.0,137.0,140.0,140.0,127.0,0.0,0.0,0.0,0.0,0.0,12.0,22.0,65.0,0.0,0.0,544.0,87.0,36.0,138.0,5.1407501,45.6344131,5.140750055905572,45.634413113118846,"45.6344131131,5.14075005591",81.4
413,HEP,du centre aime cesaire,653329.5,6855184.9,NON,111.0,urbain,94076,villejuif,94076,VILLEJUIF,94,VAL-DE-MARNE,24.0,CRETEIL,11,ILE-DE-FRANCE,11,ILE-DE-FRANCE,449.0,135.0,111.0,102.0,100.0,0.0,0.0,0.0,0.0,0.0,14.0,17.0,1.0,23.0,0.0,448.0,71.0,19.0,97.0,2.3646781000000003,48.7950565,2.3646781144980955,48.795056539114164,"48.7950565391,2.3646781145",85.4
789,REP,jules verne,497685.4,6614008.9,NON,111.0,urbain,86041,buxerolles,86041,BUXEROLLES,86,VIENNE,13.0,POITIERS,54,POITOU-CHARENTES,75,NOUVELLE-AQUITAINE,488.0,136.0,140.0,119.0,93.0,0.0,0.0,0.0,0.0,0.0,22.0,21.0,1.0,26.0,0.0,488.0,81.0,25.0,127.0,0.356779,46.5956486,0.35677895038977986,46.59564864186777,"46.5956486419,0.35677895039",82.4
2342,HEP,paul valery,464782.5,6240910.3,NON,111.0,urbain,65417,semeac,65417,SEMEAC,65,HAUTES-PYRENEES,16.0,TOULOUSE,73,MIDI-PYRENEES,76,OCCITANIE,582.0,140.0,156.0,141.0,134.0,0.0,0.0,0.0,0.0,0.0,9.0,21.0,141.0,0.0,0.0,571.0,91.0,25.0,130.0,0.1058613,43.2285951,0.10586132169713194,43.22859515383372,"43.2285951538,0.105861321697",89.8
2991,HEP,petit versailles,469829.3,6738597.3,NON,211.0,intermédiaire,72154,la fleche,72154,LA FLECHE,72,SARTHE,17.0,NANTES,52,PAYS DE LA LOIRE,52,PAYS-DE-LA-LOIRE,473.0,98.0,99.0,99.0,100.0,19.0,17.0,24.0,17.0,77.0,13.0,22.0,33.0,0.0,0.0,396.0,53.0,23.0,102.0,-0.07007639999999997,47.7074899,-0.07007640237439987,47.70748990811526,"47.7074899081,-0.0700764023744",87.5
3538,REPPLUS,guy mareschal,651662.2,6974884.8,NON,111.0,urbain,80021,amiens,80021,AMIENS,80,SOMME,20.0,AMIENS,22,PICARDIE,32,HAUTS-DE-FRANCE,308.0,55.0,56.0,57.0,78.0,11.0,15.0,14.0,13.0,53.0,20.0,18.0,34.0,24.0,0.0,246.0,60.0,26.0,97.0,2.3281177000000004,49.8708645,2.328117743646448,49.87086456315274,"49.8708645632,2.32811774365",95.6
3279,HEP,barbey daurevilly,561470.9,6929117.5,NON,111.0,urbain,76540,rouen,76540,ROUEN,76,SEINE MARITIME,21.0,ROUEN,23,HAUTE-NORMANDIE,28,NORMANDIE,584.0,152.0,142.0,148.0,142.0,0.0,0.0,0.0,0.0,0.0,11.0,22.0,20.0,24.0,0.0,584.0,133.0,21.0,159.0,1.0901987,49.4464039,1.090198734328529,49.4464039294681,"49.4464039295,1.09019873433",88.1
2457,REP,jean mace,695663.8,7034883.4,NON,111.0,urbain,62427,henin beaumont,62427,HENIN-BEAUMONT,62,PAS-DE-CALAIS,9.0,LILLE,31,NORD-PAS-DE-CALAIS,32,HAUTS-DE-FRANCE,400.0,77.0,87.0,98.0,83.0,12.0,16.0,13.0,14.0,55.0,8.0,20.0,0.0,0.0,0.0,345.0,55.0,28.0,92.0,2.9390832,50.4115078,2.9390831679200016,50.41150781196181,"50.411507812,2.93908316792",77.5
1425,REPPLUS,anselme mathieu,845770.9,6316461.7,NON,111.0,urbain,84007,avignon,84007,AVIGNON,84,VAUCLUSE,2.0,AIX-MARSEILLE,93,PROVENCE-ALPES-COTE D'AZUR,93,PROVENCE-ALPES-COTE-D'AZUR,552.0,133.0,112.0,98.0,98.0,23.0,24.0,31.0,33.0,111.0,34.0,27.0,107.0,23.0,0.0,441.0,38.0,30.0,68.0,4.8154486,43.9320768,4.815448617207052,43.93207687720601,"43.9320768772,4.81544861721",73.5
2289,HEP,ferdinand bac,687615.2,6924447.4,NON,111.0,urbain,60159,compiegne,60159,COMPIEGNE,60,OISE,20.0,AMIENS,22,PICARDIE,32,HAUTS-DE-FRANCE,618.0,160.0,152.0,137.0,156.0,0.0,0.0,0.0,0.0,0.0,18.0,23.0,64.0,28.0,0.0,605.0,126.0,29.0,161.0,2.8293658,49.4193664,2.829365773955072,49.419366437958935,"49.419366438,2.82936577396",94.4
272,HEP,pierre gassendi,949724.6,6251628.1,NON,112.0,intermédiaire,83106,rocbaron,83106,ROCBARON,83,VAR,23.0,NICE,93,PROVENCE-ALPES-COTE D'AZUR,93,PROVENCE-ALPES-COTE-D'AZUR,489.0,134.0,118.0,123.0,114.0,0.0,0.0,0.0,0.0,0.0,14.0,20.0,69.0,0.0,0.0,489.0,89.0,30.0,141.0,6.0775975,43.3200046,6.07759745387374,43.32000460802808,"43.320004608,6.07759745387",91.3
782,REP,jules verne,808035.2,6304324.5,NON,111.0,urbain,30189,nimes,30189,NIMES,30,GARD,11.0,MONTPELLIER,91,LANGUEDOC-ROUSSILLON,76,OCCITANIE,334.0,84.0,83.0,80.0,74.0,0.0,0.0,0.0,0.0,0.0,21.0,16.0,0.0,0.0,0.0,321.0,50.0,33.0,94.0,4.3430195,43.8296636,4.343019549898944,43.82966362534519,"43.8296636253,4.3430195499",65.1
521,HEP,clotaire baujoin,690892.6,6931208.8,NON,111.0,urbain,60636,thourotte,60636,THOUROTTE,60,OISE,20.0,AMIENS,22,PICARDIE,32,HAUTS-DE-FRANCE,591.0,153.0,158.0,125.0,155.0,0.0,0.0,0.0,0.0,0.0,21.0,23.0,0.0,24.0,0.0,591.0,98.0,39.0,155.0,2.8743726,49.48019229999999,2.8743725524407586,49.48019239032838,"49.4801923903,2.87437255244",90.1
522,HEP,abel lefranc,688387.8,6942699.9,NON,300.0,rural,60350,lassigny,60350,LASSIGNY,60,OISE,20.0,AMIENS,22,PICARDIE,32,HAUTS-DE-FRANCE,402.0,109.0,89.0,106.0,98.0,0.0,0.0,0.0,0.0,0.0,9.0,16.0,0.0,0.0,0.0,402.0,46.0,33.0,92.0,2.8394992,49.5834229,2.8394992470691416,49.58342295560954,"49.5834229556,2.83949924707",89.1
1921,HEP,gaston ramon,901068.3,6721333.2,NON,400.0,rural,70198,dampierre sur salon,70198,DAMPIERRE-SUR-SALON,70,HAUTE-SAONE,3.0,BESANCON,43,FRANCHE-COMTE,27,BOURGOGNE-ET-FRANCHE-COMTE,367.0,107.0,84.0,84.0,82.0,0.0,0.0,0.0,0.0,0.0,14.0,17.0,0.0,0.0,0.0,357.0,55.0,13.0,104.0,5.674424,47.5617245,5.674423969575791,47.561724518716154,"47.5617245187,5.67442396958",83.0
2170,HEP,de liroise,148227.7,6837215.5,NON,111.0,urbain,29019,brest,29019,BREST,29,FINISTERE,14.0,RENNES,53,BRETAGNE,53,BRETAGNE,713.0,181.0,177.0,182.0,173.0,0.0,0.0,0.0,0.0,0.0,38.0,27.0,106.0,0.0,0.0,713.0,111.0,41.0,164.0,-4.4658702,48.4002933,-4.465870249867291,48.400293320346,"48.4002933203,-4.46587024987",87.2
1480,HEP,de la pyramide,666756.6,6837315.2,NON,111.0,urbain,77251,lieusaint,77251,LIEUSAINT,77,SEINE-ET-MARNE,24.0,CRETEIL,11,ILE-DE-FRANCE,11,ILE-DE-FRANCE,383.0,97.0,107.0,93.0,86.0,0.0,0.0,0.0,0.0,0.0,11.0,15.0,0.0,0.0,0.0,383.0,57.0,16.0,76.0,2.5488452,48.6351652,2.548845238798149,48.635165211776865,"48.6351652118,2.5488452388",93.1
3154,HEP,jules ferry,953796.2,6229276.1,NON,111.0,urbain,83069,hyeres,83069,HYERES,83,VAR,23.0,NICE,93,PROVENCE-ALPES-COTE D'AZUR,93,PROVENCE-ALPES-COTE-D'AZUR,717.0,183.0,177.0,167.0,190.0,0.0,0.0,0.0,0.0,0.0,27.0,27.0,92.0,17.0,0.0,717.0,111.0,56.0,189.0,6.116856200000001,43.1176649,6.1168561720997445,43.11766495673189,"43.1176649567,6.1168561721",92.0
350,HEP,tartenson,706919.0,1615631.4,NON,111.0,urbain,97209,fort de france,97209,FORT-DE-FRANCE,972,MARTINIQUE,31.0,MARTINIQUE,2,MARTINIQUE,2,MARTINIQUE,461.0,111.0,114.0,112.0,123.0,0.0,0.0,0.0,0.0,0.0,15.0,17.0,0.0,26.0,0.0,460.0,105.0,18.0,130.0,-61.0790941,14.606071300000002,-61.079094123377544,14.606071309591,"14.6060713096,-61.0790941234",93.8
2868,HEP,rene descartes,668997.8,6872277.7,NON,111.0,urbain,93073,tremblay en france,93073,TREMBLAY-EN-FRANCE,93,SEINE-SAINT-DENIS,24.0,CRETEIL,11,ILE-DE-FRANCE,11,ILE-DE-FRANCE,517.0,119.0,138.0,117.0,114.0,2.0,5.0,5.0,6.0,18.0,28.0,25.0,106.0,25.0,0.0,488.0,91.0,30.0,120.0,2.5767171,48.9497146,2.576717061266471,48.94971462587664,"48.9497146259,2.57671706127",81.0
2499,REP,jules ferry,735982.1,7030857.4,NON,111.0,urbain,59014,anzin,59014,ANZIN,59,NORD,9.0,LILLE,31,NORD-PAS-DE-CALAIS,32,HAUTS-DE-FRANCE,496.0,138.0,128.0,122.0,108.0,0.0,0.0,0.0,0.0,0.0,28.0,22.0,0.0,19.0,0.0,496.0,48.0,43.0,104.0,3.5051237,50.3743467,3.5051236578089253,50.37434672787134,"50.3743467279,3.50512365781",72.2
3623,HEP,la pajotterie,570438.4,6832914.4,NON,120.0,intermédiaire,28089,chateauneuf en thymerais,28089,CHATEAUNEUF-EN-THYMERAIS,28,EURE-ET-LOIR,18.0,ORLEANS-TOURS,24,CENTRE-VAL-DE-LOIRE,24,CENTRE-VAL-DE-LOIRE,517.0,124.0,143.0,134.0,116.0,0.0,0.0,0.0,0.0,0.0,12.0,21.0,0.0,0.0,0.0,517.0,77.0,28.0,119.0,1.2432858,48.5834693,1.2432857897404626,48.58346934342384,"48.5834693434,1.24328578974",94.8
1770,HEP,marcel chamontin,834063.7,6384620.8,NON,111.0,urbain,07319,le teil,07319,LE TEIL,07,ARDECHE,8.0,GRENOBLE,82,RHONE-ALPES,84,AUVERGNE-ET-RHONE-ALPES,702.0,164.0,190.0,169.0,168.0,0.0,0.0,0.0,0.0,0.0,27.0,27.0,185.0,7.0,0.0,691.0,107.0,38.0,162.0,4.6878334000000015,44.5477654,4.687833364533587,44.54776549209375,"44.5477654921,4.68783336453",83.5
651,HEP,honore daumier,893666.7,6242859.2,NON,111.0,urbain,13055,marseille,13208,MARSEILLE  8E,13,BOUCHES-DU-RHONE,2.0,AIX-MARSEILLE,93,PROVENCE-ALPES-COTE D'AZUR,93,PROVENCE-ALPES-COTE-D'AZUR,664.0,171.0,172.0,149.0,172.0,0.0,0.0,0.0,0.0,0.0,25.0,24.0,114.0,47.0,0.0,664.0,117.0,30.0,171.0,5.3839612,43.2586057,5.383961182069059,43.25860572907855,"43.2586057291,5.38396118207",83.0
3438,REP,jacques prevert,730118.2,7003166.6,NON,211.0,intermédiaire,59139,caudry,59139,CAUDRY,59,NORD,9.0,LILLE,31,NORD-PAS-DE-CALAIS,32,HAUTS-DE-FRANCE,571.0,125.0,108.0,112.0,116.0,18.0,28.0,21.0,29.0,96.0,20.0,29.0,0.0,15.0,0.0,461.0,61.0,46.0,113.0,3.4207356,50.1260205,3.4207355738582383,50.12602050200571,"50.126020502,3.42073557386",81.0
3690,HEP,rene barjavel,870579.9,6364545.1,NON,221.0,intermédiaire,26220,nyons,26220,NYONS,26,DROME,8.0,GRENOBLE,82,RHONE-ALPES,84,AUVERGNE-ET-RHONE-ALPES,696.0,175.0,160.0,168.0,193.0,0.0,0.0,0.0,0.0,0.0,26.0,26.0,131.0,20.0,0.0,696.0,115.0,31.0,165.0,5.1405129999999986,44.359129,5.140512959826814,44.35912908480303,"44.3591290848,5.14051295983",92.5
3957,HEP,amiral lejeune,649052.2,6977338.9,NON,111.0,urbain,80021,amiens,80021,AMIENS,80,SOMME,20.0,AMIENS,22,PICARDIE,32,HAUTS-DE-FRANCE,455.0,100.0,109.0,123.0,111.0,0.0,0.0,0.0,0.0,0.0,16.0,17.0,0.0,6.0,0.0,443.0,71.0,22.0,99.0,2.2915353,49.8927049,2.2915353062594246,49.892704948808486,"49.8927049488,2.29153530626",85.1
2148,HEP,des cordeliers,406647.3,6239027.0,NON,211.0,intermédiaire,64422,oloron sainte marie,64422,OLORON-SAINTE-MARIE,64,PYRENEES-ATLANTIQUES,4.0,BORDEAUX,72,AQUITAINE,75,NOUVELLE-AQUITAINE,383.0,89.0,73.0,97.0,113.0,0.0,0.0,0.0,0.0,0.0,8.0,14.0,0.0,38.0,0.0,372.0,63.0,17.0,91.0,-0.6074851,43.1901464,-0.6074850714884977,43.19014644368226,"43.1901464437,-0.607485071488",100.0
118,HEP,antoine de saint exupery,327828.9,6707247.6,NON,112.0,intermédiaire,44195,savenay,44195,SAVENAY,44,LOIRE-ATLANTIQUE,17.0,NANTES,52,PAYS DE LA LOIRE,52,PAYS-DE-LA-LOIRE,554.0,153.0,146.0,117.0,138.0,0.0,0.0,0.0,0.0,0.0,19.0,20.0,0.0,25.0,0.0,554.0,121.0,40.0,190.0,-1.9340102,47.3608803,-1.9340102392752416,47.36088037477378,"47.3608803748,-1.93401023928",91.4
1952,HEP,marcel ayme,851585.4,6688503.6,NON,111.0,urbain,21390,marsannay la cote,21390,MARSANNAY-LA-COTE,21,COTE D'OR,7.0,DIJON,26,BOURGOGNE,27,BOURGOGNE-ET-FRANCHE-COMTE,319.0,70.0,68.0,70.0,55.0,6.0,15.0,15.0,10.0,46.0,10.0,16.0,0.0,0.0,0.0,263.0,56.0,13.0,78.0,5.005491200000002,47.2795205,5.0054911865139875,47.27952051682683,"47.2795205168,5.00549118651",91.0
3918,HEP,lakanal,645293.3,6869038.7,NON,111.0,urbain,92025,colombes,92025,COLOMBES,92,HAUTS-DE-SEINE,25.0,VERSAILLES,11,ILE-DE-FRANCE,11,ILE-DE-FRANCE,677.0,169.0,187.0,167.0,154.0,0.0,0.0,0.0,0.0,0.0,24.0,25.0,0.0,0.0,0.0,677.0,116.0,16.0,144.0,2.2535051,48.9190094,2.2535051294319266,48.919009493060855,"48.9190094931,2.25350512943",92.3
168,HEP,emmanuel maffre bauge,737019.9,6271399.5,NON,300.0,rural,34194,paulhan,34194,PAULHAN,34,HERAULT,11.0,MONTPELLIER,91,LANGUEDOC-ROUSSILLON,76,OCCITANIE,594.0,167.0,155.0,134.0,138.0,0.0,0.0,0.0,0.0,0.0,14.0,22.0,4.0,14.0,0.0,594.0,74.0,28.0,119.0,3.4578716,43.540701,3.4578716423087883,43.5407010676809,"43.5407010677,3.45787164231",82.5
3963,HEP,denis diderot,851223.0,6325206.0,OUI,111.0,urbain,84129,sorgues,84129,SORGUES,84,VAUCLUSE,2.0,AIX-MARSEILLE,93,PROVENCE-ALPES-COTE D'AZUR,93,PROVENCE-ALPES-COTE-D'AZUR,660.0,141.0,157.0,175.0,130.0,8.0,9.0,14.0,16.0,47.0,24.0,27.0,71.0,12.0,0.0,603.0,73.0,36.0,127.0,4.8859249,44.0096019,4.885924933522838,44.00960192227636,"44.0096019223,4.88592493352",89.1
1405,REPPLUS,henri barnier,890056.4,6254575.4,NON,111.0,urbain,13055,marseille,13216,MARSEILLE 16E,13,BOUCHES-DU-RHONE,2.0,AIX-MARSEILLE,93,PROVENCE-ALPES-COTE D'AZUR,93,PROVENCE-ALPES-COTE-D'AZUR,609.0,125.0,154.0,132.0,135.0,14.0,13.0,11.0,13.0,51.0,39.0,29.0,197.0,16.0,0.0,546.0,58.0,65.0,135.0,5.3438258,43.3649265,5.343825753186543,43.36492655843325,"43.3649265584,5.34382575319",56.2
962,HEP,de la montagne,336028.7,7688860.1,NON,111.0,urbain,97411,saint denis,97411,SAINT-DENIS,974,LA REUNION,28.0,LA REUNION,4,LA REUNION,4,LA-REUNION,815.0,177.0,191.0,199.0,185.0,4.0,4.0,16.0,15.0,39.0,36.0,34.0,18.0,0.0,0.0,752.0,146.0,66.0,226.0,55.4235404,-20.893267,55.42354038140113,-20.89326703883365,"-20.8932670388,55.4235403814",90.3
945,HEP,du pays de serres,551436.4,6352355.4,NON,400.0,rural,82094,lauzerte,82094,LAUZERTE,82,TARN-ET-GARONNE,16.0,TOULOUSE,73,MIDI-PYRENEES,76,OCCITANIE,251.0,60.0,57.0,79.0,55.0,0.0,0.0,0.0,0.0,0.0,5.0,12.0,0.0,0.0,0.0,251.0,46.0,12.0,70.0,1.1392513000000002,44.2544607,1.139251252714815,44.25446076342072,"44.2544607634,1.13925125271",79.1
462,HEP,jean baptiste camille corot,554880.7,6523324.5,NON,112.0,intermédiaire,87001,aixe sur vienne,87001,AIXE-SUR-VIENNE,87,HAUTE-VIENNE,22.0,LIMOGES,74,LIMOUSIN,75,NOUVELLE-AQUITAINE,642.0,166.0,183.0,149.0,144.0,0.0,0.0,0.0,0.0,0.0,11.0,25.0,0.0,29.0,0.0,642.0,94.0,23.0,139.0,1.1317184999999998,45.7940915,1.1317184606569195,45.7940915051079,"45.7940915051,1.13171846066",82.0
2059,HEP,dinet,863436.9,6657704.0,NON,120.0,intermédiaire,21607,seurre,21607,SEURRE,21,COTE D'OR,7.0,DIJON,26,BOURGOGNE,27,BOURGOGNE-ET-FRANCHE-COMTE,389.0,96.0,99.0,101.0,93.0,0.0,0.0,0.0,0.0,0.0,10.0,16.0,0.0,0.0,0.0,389.0,53.0,13.0,79.0,5.151114700000001,46.9995211,5.151114704528976,46.99952113356552,"46.9995211336,5.15111470453",96.0
328,HEP,katia et maurice krafft,1045798.7,6840940.2,NON,111.0,urbain,67118,eckbolsheim,67118,ECKBOLSHEIM,67,BAS-RHIN,15.0,STRASBOURG,42,ALSACE,44,GRAND-EST,431.0,113.0,100.0,111.0,107.0,0.0,0.0,0.0,0.0,0.0,15.0,16.0,1.0,73.0,0.0,431.0,81.0,14.0,101.0,7.6903759,48.5762174,7.690375925464218,48.5762174217592,"48.5762174218,7.69037592546",89.8
2784,REPPLUS,lamartine,848954.7,6518533.2,NON,111.0,urbain,69266,villeurbanne,69266,VILLEURBANNE,69,RHONE,10.0,LYON,82,RHONE-ALPES,84,AUVERGNE-ET-RHONE-ALPES,511.0,124.0,125.0,127.0,123.0,0.0,0.0,0.0,0.0,0.0,44.0,20.0,0.0,19.0,0.0,499.0,73.0,30.0,124.0,4.9161432000000005,45.75013120000001,4.916143191313107,45.7501312035169,"45.7501312035,4.91614319131",74.5
2866,HEP,gerard philipe,663777.3,6870972.2,NON,111.0,urbain,93005,aulnay sous bois,93005,AULNAY-SOUS-BOIS,93,SEINE-SAINT-DENIS,24.0,CRETEIL,11,ILE-DE-FRANCE,11,ILE-DE-FRANCE,867.0,222.0,216.0,219.0,210.0,0.0,0.0,0.0,0.0,0.0,41.0,37.0,0.0,0.0,0.0,867.0,152.0,46.0,202.0,2.5055532000000005,48.9377023,2.505553247965436,48.93770231772604,"48.9377023177,2.50555324797",89.3
2654,REP,julien lambot,307362.6,6701917.4,NON,111.0,urbain,44210,trignac,44210,TRIGNAC,44,LOIRE-ATLANTIQUE,17.0,NANTES,52,PAYS DE LA LOIRE,52,PAYS-DE-LA-LOIRE,513.0,138.0,98.0,119.0,86.0,14.0,15.0,15.0,16.0,60.0,15.0,23.0,0.0,13.0,0.0,441.0,49.0,29.0,95.0,-2.1999287,47.3011804,-2.1999287150715574,47.30118042819184,"47.3011804282,-2.19992871507",93.4
1360,REP,albert camus,692572.7,6176812.8,NON,111.0,urbain,66136,perpignan,66136,PERPIGNAN,66,PYRENEES-ORIENTALES,11.0,MONTPELLIER,91,LANGUEDOC-ROUSSILLON,76,OCCITANIE,329.0,68.0,78.0,89.0,94.0,0.0,0.0,0.0,0.0,0.0,31.0,16.0,0.0,50.0,0.0,329.0,59.0,34.0,105.0,2.9094774,42.6908911,2.909477411665176,42.69089116739801,"42.6908911674,2.90947741167",72.4
3922,HEP,saint john perse,656901.9,1797384.0,NON,111.0,urbain,97101,les abymes,97101,LES ABYMES,971,GUADELOUPE,32.0,GUADELOUPE,1,GUADELOUPE,1,GUADELOUPE,670.0,163.0,167.0,157.0,169.0,0.0,0.0,0.0,0.0,0.0,25.0,27.0,0.0,24.0,53.0,656.0,92.0,48.0,146.0,-61.5317928,16.2520973,-61.531792810961974,16.252097266815728,"16.2520972668,-61.531792811",92.3
367,HEP,jean roux,519116.8,6703097.6,NON,111.0,urbain,37109,fondettes,37109,FONDETTES,37,INDRE-ET-LOIRE,18.0,ORLEANS-TOURS,24,CENTRE-VAL-DE-LOIRE,24,CENTRE-VAL-DE-LOIRE,554.0,134.0,127.0,141.0,152.0,0.0,0.0,0.0,0.0,0.0,10.0,20.0,0.0,14.0,0.0,554.0,100.0,20.0,153.0,0.6012506999999999,47.403494,0.6012507012466407,47.403494053001786,"47.403494053,0.601250701247",86.8
3699,HEP,bourran,412811.8,6421847.2,NON,111.0,urbain,33281,merignac,33281,MERIGNAC,33,GIRONDE,4.0,BORDEAUX,72,AQUITAINE,75,NOUVELLE-AQUITAINE,547.0,141.0,115.0,109.0,114.0,8.0,16.0,16.0,14.0,54.0,14.0,21.0,0.0,25.0,0.0,479.0,98.0,36.0,143.0,-0.6352134,44.8362832,-0.6352134480614796,44.83628323094041,"44.8362832309,-0.635213448061",87.2
3225,HEP,jules verne,678283.2,6968605.9,NON,400.0,rural,80680,rosieres en santerre,80680,ROSIERES-EN-SANTERRE,80,SOMME,20.0,AMIENS,22,PICARDIE,32,HAUTS-DE-FRANCE,368.0,89.0,81.0,88.0,97.0,0.0,0.0,0.0,0.0,0.0,17.0,16.0,0.0,0.0,0.0,355.0,49.0,29.0,93.0,2.6984699,49.815931,2.698469857031932,49.81593107545881,"49.8159310755,2.69846985703",90.5
4159,HEP,jean moulin,675497.5,6989278.7,NON,221.0,intermédiaire,80016,albert,80016,ALBERT,80,SOMME,20.0,AMIENS,22,PICARDIE,32,HAUTS-DE-FRANCE,351.0,67.0,81.0,74.0,58.0,16.0,16.0,10.0,17.0,59.0,9.0,16.0,0.0,14.0,0.0,280.0,53.0,12.0,72.0,2.6585507,50.0015334,2.6585506571197977,50.00153341862651,"50.0015334186,2.65855065712",90.5
2340,HEP,gerard philipe,708935.8,6521951.8,NON,111.0,urbain,63113,clermont ferrand,63113,CLERMONT-FERRAND,63,PUY-DE-DOME,6.0,CLERMONT-FERRAND,83,AUVERGNE,84,AUVERGNE-ET-RHONE-ALPES,473.0,93.0,104.0,95.0,101.0,15.0,16.0,13.0,16.0,60.0,30.0,21.0,27.0,0.0,0.0,393.0,53.0,36.0,104.0,3.1150361,45.797132,3.1150360940303083,45.79713209565495,"45.7971320957,3.11503609403",77.8
1375,REPPLUS,robert desnos,656825.6,6850114.2,OUI,111.0,urbain,94054,orly,94054,ORLY,94,VAL-DE-MARNE,24.0,CRETEIL,11,ILE-DE-FRANCE,11,ILE-DE-FRANCE,563.0,165.0,168.0,116.0,114.0,0.0,0.0,0.0,0.0,0.0,16.0,24.0,85.0,0.0,0.0,563.0,67.0,44.0,115.0,2.4127817000000005,48.749696,2.412781746754185,48.749696042408026,"48.7496960424,2.41278174675",62.6
1995,HEP,berty albrecht,993549.1,6254565.6,NON,211.0,intermédiaire,83115,sainte maxime,83115,SAINTE-MAXIME,83,VAR,23.0,NICE,93,PROVENCE-ALPES-COTE D'AZUR,93,PROVENCE-ALPES-COTE-D'AZUR,637.0,142.0,158.0,166.0,171.0,0.0,0.0,0.0,0.0,0.0,30.0,24.0,133.0,26.0,0.0,637.0,126.0,49.0,203.0,6.6186477,43.3296949,6.6186477338375465,43.32969492844824,"43.3296949284,6.61864773384",88.1
772,REP,joliot curie,776222.7,6991592.5,NON,211.0,intermédiaire,59249,fourmies,59249,FOURMIES,59,NORD,9.0,LILLE,31,NORD-PAS-DE-CALAIS,32,HAUTS-DE-FRANCE,259.0,73.0,62.0,65.0,59.0,0.0,0.0,0.0,0.0,0.0,14.0,12.0,0.0,0.0,0.0,259.0,31.0,21.0,55.0,4.0625615,50.01818520000001,4.062561511491596,50.01818527627324,"50.0181852763,4.06256151149",87.0
1284,REP,jean jaures,603572.6,7047801.5,NON,111.0,urbain,62318,etaples,62318,ETAPLES,62,PAS-DE-CALAIS,9.0,LILLE,31,NORD-PAS-DE-CALAIS,32,HAUTS-DE-FRANCE,494.0,109.0,100.0,110.0,126.0,7.0,15.0,15.0,12.0,49.0,20.0,24.0,0.0,8.0,0.0,445.0,64.0,49.0,123.0,1.6423587,50.5200401,1.64235871377373,50.5200401784929,"50.5200401785,1.64235871377",91.1
2711,REP,max jacob,168742.2,6789242.9,NON,111.0,urbain,29232,quimper,29232,QUIMPER,29,FINISTERE,14.0,RENNES,53,BRETAGNE,53,BRETAGNE,507.0,97.0,127.0,114.0,113.0,4.0,13.0,12.0,16.0,45.0,15.0,27.0,0.0,0.0,0.0,451.0,86.0,41.0,144.0,-4.1313805,47.9875182,-4.131380514595773,47.987518250495064,"47.9875182505,-4.1313805146",77.2
1514,HEP,paul darde,724936.6,6292518.5,NON,221.0,intermédiaire,34142,lodeve,34142,LODEVE,34,HERAULT,11.0,MONTPELLIER,91,LANGUEDOC-ROUSSILLON,76,OCCITANIE,687.0,167.0,152.0,162.0,154.0,12.0,16.0,10.0,14.0,52.0,18.0,29.0,84.0,7.0,0.0,635.0,105.0,34.0,152.0,3.3094478,43.7312528,3.3094478133290504,43.731252879789075,"43.7312528798,3.30944781333",94.1
3831,HEP,jules grevy,905696.5,6640972.7,NON,221.0,intermédiaire,39434,poligny,39434,POLIGNY,39,JURA,3.0,BESANCON,43,FRANCHE-COMTE,27,BOURGOGNE-ET-FRANCHE-COMTE,458.0,91.0,85.0,110.0,106.0,17.0,9.0,15.0,13.0,54.0,7.0,20.0,0.0,17.0,0.0,392.0,53.0,18.0,84.0,5.6994096,46.8372644,5.6994096211018395,46.83726444424824,"46.8372644442,5.6994096211",85.1
3362,HEP,lamartine,524015.2,6701214.2,NON,111.0,urbain,37261,tours,37261,TOURS,37,INDRE-ET-LOIRE,18.0,ORLEANS-TOURS,24,CENTRE-VAL-DE-LOIRE,24,CENTRE-VAL-DE-LOIRE,363.0,89.0,96.0,80.0,98.0,0.0,0.0,0.0,0.0,0.0,23.0,17.0,30.0,23.0,0.0,363.0,52.0,36.0,101.0,0.6669094,47.3878682,0.6669093517548952,47.38786825962418,"47.3878682596,0.666909351755",66.0
498,HEP,jean mermoz,724551.4,6918217.2,NON,111.0,urbain,02064,belleu,02064,BELLEU,02,AISNE,20.0,AMIENS,22,PICARDIE,32,HAUTS-DE-FRANCE,491.0,114.0,121.0,120.0,136.0,0.0,0.0,0.0,0.0,0.0,15.0,20.0,0.0,0.0,0.0,491.0,80.0,36.0,124.0,3.3378933,49.3630145,3.33789330184632,49.363014585002496,"49.363014585,3.33789330185",95.0
1414,REPPLUS,jean zay,661941.5,6868014.3,NON,111.0,urbain,93010,bondy,93010,BONDY,93,SEINE-SAINT-DENIS,24.0,CRETEIL,11,ILE-DE-FRANCE,11,ILE-DE-FRANCE,536.0,119.0,121.0,135.0,116.0,7.0,12.0,12.0,14.0,45.0,32.0,27.0,0.0,22.0,0.0,491.0,65.0,48.0,129.0,2.4807604,48.9109975,2.4807604328008765,48.9109975298499,"48.9109975298,2.4807604328",85.6
1234,HEP,jules lagneau,933349.3,6895797.5,NON,111.0,urbain,57463,metz,57463,METZ,57,MOSELLE,12.0,NANCY-METZ,41,LORRAINE,44,GRAND-EST,506.0,137.0,117.0,122.0,113.0,0.0,0.0,0.0,0.0,0.0,14.0,21.0,0.0,15.0,0.0,489.0,97.0,29.0,135.0,6.1972844,49.1194598,6.197284443003457,49.11945987665412,"49.1194598767,6.197284443",84.5
1732,HEP,auguste brizeux,223824.0,6757375.6,NON,111.0,urbain,56121,lorient,56121,LORIENT,56,MORBIHAN,14.0,RENNES,53,BRETAGNE,53,BRETAGNE,444.0,123.0,99.0,110.0,112.0,0.0,0.0,0.0,0.0,0.0,18.0,19.0,92.0,50.0,0.0,444.0,95.0,25.0,121.0,-3.3609966,47.744062,-3.3609965961762165,47.74406205484253,"47.7440620548,-3.36099659618",92.6
435,HEP,victor duruy,799115.4,6873736.0,NON,111.0,urbain,51108,chalons en champagne,51108,CHALONS-EN-CHAMPAGNE,51,MARNE,19.0,REIMS,21,CHAMPAGNE-ARDENNE,44,GRAND-EST,603.0,154.0,163.0,144.0,132.0,0.0,0.0,0.0,0.0,0.0,30.0,22.0,277.0,26.0,0.0,593.0,83.0,49.0,153.0,4.3534759,48.9559366,4.3534759276335135,48.95593663891771,"48.9559366389,4.35347592763",88.9
1251,HEP,jules ferry,650799.2,6865103.7,NON,111.0,urbain,75056,paris,75109,PARIS  9E,75,PARIS,1.0,PARIS,11,ILE-DE-FRANCE,11,ILE-DE-FRANCE,452.0,114.0,111.0,102.0,112.0,0.0,0.0,0.0,0.0,0.0,16.0,16.0,106.0,19.0,0.0,439.0,100.0,8.0,111.0,2.3290877,48.8840684,2.3290877341040805,48.88406846998265,"48.88406847,2.3290877341",92.9
365,HEP,georges besse,547047.0,6671699.8,NON,211.0,intermédiaire,37132,loches,37132,LOCHES,37,INDRE-ET-LOIRE,18.0,ORLEANS-TOURS,24,CENTRE-VAL-DE-LOIRE,24,CENTRE-VAL-DE-LOIRE,726.0,172.0,188.0,159.0,131.0,10.0,15.0,20.0,11.0,56.0,17.0,33.0,0.0,0.0,0.0,650.0,89.0,23.0,130.0,0.9821033,47.12797570000001,0.9821032594532444,47.12797570503705,"47.127975705,0.982103259453",91.3
2860,HEP,parc des tourelles,677048.0,6871964.0,NON,112.0,intermédiaire,77118,claye souilly,77118,CLAYE-SOUILLY,77,SEINE-ET-MARNE,24.0,CRETEIL,11,ILE-DE-FRANCE,11,ILE-DE-FRANCE,535.0,134.0,133.0,142.0,126.0,0.0,0.0,0.0,0.0,0.0,6.0,20.0,0.0,0.0,0.0,535.0,120.0,13.0,142.0,2.6866447,48.9472313,2.686644653515988,48.947231389108715,"48.9472313891,2.68664465352",95.0
276,HEP,rene cassin,968620.3,6782526.8,NON,111.0,urbain,88158,eloyes,88158,ELOYES,88,VOSGES,12.0,NANCY-METZ,41,LORRAINE,44,GRAND-EST,334.0,83.0,87.0,88.0,64.0,0.0,0.0,0.0,0.0,0.0,8.0,15.0,1.0,0.0,0.0,322.0,58.0,25.0,92.0,6.6090315,48.0878586,6.6090315068793375,48.0878586194358,"48.0878586194,6.60903150688",80.9
2822,HEP,louis jouvet,550226.5,6559805.1,NON,221.0,intermédiaire,87011,bellac,87011,BELLAC,87,HAUTE-VIENNE,22.0,LIMOGES,74,LIMOUSIN,75,NOUVELLE-AQUITAINE,379.0,78.0,87.0,72.0,68.0,12.0,14.0,18.0,17.0,61.0,13.0,17.0,0.0,13.0,0.0,305.0,41.0,22.0,88.0,1.0602886,46.1214902,1.0602886105589453,46.121490268158595,"46.1214902682,1.06028861056",71.8
3615,HEP,val de charente,482864.5,6551132.5,NON,221.0,intermédiaire,16292,ruffec,16292,RUFFEC,16,CHARENTE,13.0,POITIERS,54,POITOU-CHARENTES,75,NOUVELLE-AQUITAINE,300.0,53.0,77.0,66.0,48.0,7.0,17.0,16.0,4.0,44.0,7.0,15.0,0.0,0.0,0.0,244.0,32.0,16.0,60.0,0.1924995,46.0251969,0.1924994994586191,46.02519693469764,"46.0251969347,0.192499499459",85.2
2856,HEP,le petit pretan,832676.3,6632754.1,NON,112.0,intermédiaire,71221,givry,71221,GIVRY,71,SAONE-ET-LOIRE,7.0,DIJON,26,BOURGOGNE,27,BOURGOGNE-ET-FRANCHE-COMTE,468.0,112.0,114.0,127.0,115.0,0.0,0.0,0.0,0.0,0.0,11.0,17.0,0.0,22.0,0.0,468.0,78.0,11.0,103.0,4.7391667,46.78176920000001,4.739166682988209,46.78176929257682,"46.7817692926,4.73916668299",99.0
1506,HEP,jeanine vancayzeele,514696.3,6895858.1,NON,300.0,rural,27629,thiberville,27629,THIBERVILLE,27,EURE,21.0,ROUEN,23,HAUTE-NORMANDIE,28,NORMANDIE,336.0,86.0,95.0,89.0,66.0,0.0,0.0,0.0,0.0,0.0,6.0,15.0,0.0,22.0,0.0,336.0,36.0,25.0,79.0,0.4604831,49.1356929,0.4604831472821752,49.13569298586871,"49.1356929859,0.460483147282",92.3
407,HEP,alphonse tavan,850870.5,6317569.4,NON,111.0,urbain,84007,avignon,84007,AVIGNON,84,VAUCLUSE,2.0,AIX-MARSEILLE,93,PROVENCE-ALPES-COTE D'AZUR,93,PROVENCE-ALPES-COTE-D'AZUR,426.0,101.0,112.0,96.0,108.0,0.0,0.0,0.0,0.0,0.0,18.0,16.0,121.0,27.0,0.0,417.0,53.0,20.0,89.0,4.8792644,43.9409693,4.879264350690577,43.94096936527972,"43.9409693653,4.87926435069",89.5
2639,HEP,alain fournier,654792.4,6862197.9,NON,111.0,urbain,75056,paris,75111,PARIS 11E,75,PARIS,1.0,PARIS,11,ILE-DE-FRANCE,11,ILE-DE-FRANCE,596.0,158.0,156.0,151.0,121.0,0.0,0.0,0.0,0.0,0.0,25.0,23.0,48.0,48.0,0.0,586.0,127.0,26.0,158.0,2.3838467,48.8582298,2.3838467096622966,48.85822988097936,"48.858229881,2.38384670966",92.3
1972,HEP,albert schweitzer,686743.4,7049280.2,NON,111.0,urbain,59051,la bassee,59051,LA BASSEE,59,NORD,9.0,LILLE,31,NORD-PAS-DE-CALAIS,32,HAUTS-DE-FRANCE,880.0,216.0,221.0,210.0,188.0,6.0,9.0,14.0,16.0,45.0,28.0,36.0,22.0,28.0,0.0,835.0,122.0,54.0,192.0,2.8132876,50.5406123,2.813287560775973,50.54061238996263,"50.54061239,2.81328756078",81.5
2341,HEP,saint exupery,622522.0,6757388.9,NON,111.0,urbain,45284,saint jean de braye,45284,SAINT-JEAN-DE-BRAYE,45,LOIRET,18.0,ORLEANS-TOURS,24,CENTRE-VAL-DE-LOIRE,24,CENTRE-VAL-DE-LOIRE,586.0,176.0,134.0,143.0,133.0,0.0,0.0,0.0,0.0,0.0,31.0,22.0,0.0,19.0,0.0,586.0,82.0,35.0,133.0,1.9628229,47.9123136,1.9628228613604133,47.91231361901593,"47.912313619,1.96282286136",70.4
1543,HEP,rene cassin,935068.5,6728733.0,NON,111.0,urbain,70388,noidans les vesoul,70388,NOIDANS-LES-VESOUL,70,HAUTE-SAONE,3.0,BESANCON,43,FRANCHE-COMTE,27,BOURGOGNE-ET-FRANCHE-COMTE,378.0,106.0,111.0,80.0,68.0,0.0,0.0,0.0,0.0,0.0,10.0,15.0,0.0,15.0,0.0,365.0,64.0,16.0,84.0,6.1301238,47.6170407,6.130123823081008,47.617040763740064,"47.6170407637,6.13012382308",91.5
4157,HEP,honore de balzac,467173.0,6691007.7,NON,111.0,urbain,49328,saumur,49328,SAUMUR,49,MAINE-ET-LOIRE,17.0,NANTES,52,PAYS DE LA LOIRE,52,PAYS-DE-LA-LOIRE,471.0,123.0,103.0,122.0,103.0,0.0,0.0,0.0,9.0,9.0,14.0,20.0,0.0,17.0,0.0,451.0,57.0,30.0,126.0,-0.0807182,47.2785009,-0.08071822256408917,47.278500928021685,"47.278500928,-0.0807182225641",82.0
2622,HEP,antoine risso,1045274.4,6299180.8,NON,111.0,urbain,06088,nice,06088,NICE,06,ALPES-MARITIMES,23.0,NICE,93,PROVENCE-ALPES-COTE D'AZUR,93,PROVENCE-ALPES-COTE-D'AZUR,480.0,137.0,104.0,111.0,128.0,0.0,0.0,0.0,0.0,0.0,28.0,21.0,145.0,0.0,0.0,480.0,61.0,45.0,119.0,7.284944,43.70732260000001,7.284943956553545,43.707322691805075,"43.7073226918,7.28494395655",89.2
844,REPPLUS,francois villon,1022924.2,6747838.8,NON,111.0,urbain,68224,mulhouse,68224,MULHOUSE,68,HAUT-RHIN,15.0,STRASBOURG,42,ALSACE,44,GRAND-EST,796.0,189.0,173.0,183.0,161.0,15.0,18.0,21.0,24.0,78.0,43.0,38.0,1.0,91.0,0.0,706.0,70.0,65.0,157.0,7.3118686,47.7515702,7.311868560445727,47.7515702700849,"47.7515702701,7.31186856045",75.0
3911,HEP,les bles dor,686725.5,6860757.5,NON,112.0,intermédiaire,77018,bailly romainvilliers,77018,BAILLY-ROMAINVILLIERS,77,SEINE-ET-MARNE,24.0,CRETEIL,11,ILE-DE-FRANCE,11,ILE-DE-FRANCE,539.0,138.0,139.0,138.0,124.0,0.0,0.0,0.0,0.0,0.0,15.0,20.0,67.0,0.0,0.0,539.0,105.0,17.0,129.0,2.8191179,48.8467255,2.8191179034090004,48.846725516511675,"48.8467255165,2.81911790341",94.4
4040,HEP,jean rostand,467487.6,6361400.5,NON,221.0,intermédiaire,47052,casteljaloux,47052,CASTELJALOUX,47,LOT-ET-GARONNE,4.0,BORDEAUX,72,AQUITAINE,75,NOUVELLE-AQUITAINE,308.0,80.0,73.0,72.0,83.0,0.0,0.0,0.0,0.0,0.0,10.0,12.0,104.0,0.0,0.0,308.0,46.0,22.0,81.0,0.0843992,44.3129915,0.08439918536936564,44.31299159458622,"44.3129915946,0.0843991853694",92.3
86,HEP,arausio,846286.2,6338598.0,NON,111.0,urbain,84087,orange,84087,ORANGE,84,VAUCLUSE,2.0,AIX-MARSEILLE,93,PROVENCE-ALPES-COTE D'AZUR,93,PROVENCE-ALPES-COTE-D'AZUR,713.0,176.0,183.0,204.0,138.0,0.0,0.0,0.0,0.0,0.0,29.0,28.0,79.0,23.0,0.0,701.0,101.0,36.0,166.0,4.8282459000000015,44.131145,4.8282459146327845,44.131145012066746,"44.1311450121,4.82824591463",83.9
1767,HEP,le grand cedre,880485.1,6589728.0,NON,112.0,intermédiaire,01108,coligny,01108,COLIGNY,01,AIN,10.0,LYON,82,RHONE-ALPES,84,AUVERGNE-ET-RHONE-ALPES,439.0,114.0,112.0,105.0,108.0,0.0,0.0,0.0,0.0,0.0,9.0,16.0,0.0,15.0,0.0,439.0,36.0,23.0,84.0,5.3487665,46.38333220000001,5.348766523423366,46.383332230086964,"46.3833322301,5.34876652342",93.8
2186,HEP,michelet,687684.6,7036942.6,NON,111.0,urbain,62498,lens,62498,LENS,62,PAS-DE-CALAIS,9.0,LILLE,31,NORD-PAS-DE-CALAIS,32,HAUTS-DE-FRANCE,439.0,112.0,115.0,100.0,112.0,0.0,0.0,0.0,0.0,0.0,26.0,19.0,0.0,20.0,0.0,439.0,64.0,43.0,112.0,2.8269247,50.4298871,2.826924715412726,50.42988715096193,"50.429887151,2.82692471541",86.3
3511,REPPLUS,george sand,513013.2,6636802.2,NON,111.0,urbain,86066,chatellerault,86066,CHATELLERAULT,86,VIENNE,13.0,POITIERS,54,POITOU-CHARENTES,75,NOUVELLE-AQUITAINE,552.0,130.0,117.0,137.0,100.0,17.0,17.0,17.0,17.0,68.0,20.0,25.0,0.0,14.0,0.0,484.0,66.0,25.0,106.0,0.5476561,46.8052281,0.5476560930490292,46.80522819603858,"46.805228196,0.547656093049",90.4
1926,HEP,marcel pagnol,595329.8,6882251.5,NON,112.0,intermédiaire,78089,bonnieres sur seine,78089,BONNIERES-SUR-SEINE,78,YVELINES,25.0,VERSAILLES,11,ILE-DE-FRANCE,11,ILE-DE-FRANCE,616.0,145.0,144.0,143.0,172.0,0.0,0.0,0.0,0.0,0.0,32.0,25.0,0.0,0.0,0.0,604.0,93.0,41.0,168.0,1.5685786,49.0316159,1.5685785916666781,49.03161594591953,"49.0316159459,1.56857859167",80.0
1675,HEP,denis poisson,643758.5,6785340.7,NON,211.0,intermédiaire,45252,pithiviers,45252,PITHIVIERS,45,LOIRET,18.0,ORLEANS-TOURS,24,CENTRE-VAL-DE-LOIRE,24,CENTRE-VAL-DE-LOIRE,1028.0,243.0,202.0,252.0,219.0,16.0,29.0,33.0,22.0,100.0,43.0,43.0,0.0,25.0,0.0,916.0,111.0,62.0,208.0,2.2435049,48.166003,2.24350486116078,48.16600302712325,"48.1660030271,2.24350486116",77.5
1694,HEP,jean cavailles,982790.8,6281015.6,NON,112.0,intermédiaire,83056,figanieres,83056,FIGANIERES,83,VAR,23.0,NICE,93,PROVENCE-ALPES-COTE D'AZUR,93,PROVENCE-ALPES-COTE-D'AZUR,447.0,116.0,110.0,109.0,112.0,0.0,0.0,0.0,0.0,0.0,16.0,16.0,146.0,34.0,0.0,447.0,76.0,22.0,121.0,6.5006496,43.5717771,6.5006495535574045,43.571777166347076,"43.5717771663,6.50064955356",81.7
855,HEP,paul sixdenier,901376.4,6545064.2,NON,221.0,intermédiaire,01185,hauteville lompnes,01185,HAUTEVILLE-LOMPNES,01,AIN,10.0,LYON,82,RHONE-ALPES,84,AUVERGNE-ET-RHONE-ALPES,256.0,59.0,61.0,62.0,74.0,0.0,0.0,0.0,0.0,0.0,10.0,12.0,0.0,0.0,0.0,256.0,51.0,10.0,69.0,5.6013092,45.97544370000001,5.601309241019221,45.97544371164042,"45.9754437116,5.60130924102",93.0
1894,HEP,jacques maure,572903.8,6289677.9,NON,111.0,urbain,31116,castelginest,31116,CASTELGINEST,31,HAUTE-GARONNE,16.0,TOULOUSE,73,MIDI-PYRENEES,76,OCCITANIE,620.0,159.0,165.0,144.0,138.0,0.0,0.0,0.0,0.0,0.0,20.0,22.0,67.0,0.0,0.0,606.0,119.0,23.0,162.0,1.4237197,43.6947165,1.4237197248534523,43.694716524280864,"43.6947165243,1.42371972485",90.3
78,REPPLUS,la rabiere,524061.8,6696618.8,OUI,111.0,urbain,37122,joue les tours,37122,JOUE-LES-TOURS,37,INDRE-ET-LOIRE,18.0,ORLEANS-TOURS,24,CENTRE-VAL-DE-LOIRE,24,CENTRE-VAL-DE-LOIRE,312.0,68.0,67.0,59.0,45.0,17.0,13.0,28.0,15.0,73.0,8.0,16.0,10.0,0.0,0.0,239.0,34.0,19.0,59.0,0.6693245,47.3465302,0.6693244742040989,47.34653024488979,"47.3465302449,0.669324474204",91.7
944,HEP,mon plaisir,693777.1,6862023.1,NON,112.0,intermédiaire,77142,crecy la chapelle,77142,CRECY-LA-CHAPELLE,77,SEINE-ET-MARNE,24.0,CRETEIL,11,ILE-DE-FRANCE,11,ILE-DE-FRANCE,564.0,135.0,149.0,137.0,143.0,0.0,0.0,0.0,0.0,0.0,11.0,22.0,0.0,27.0,0.0,564.0,121.0,23.0,147.0,2.9151864,48.858214,2.9151863630920767,48.8582140435737,"48.8582140436,2.91518636309",91.0
199,HEP,clovis hugues,864755.5,6306105.9,NON,111.0,urbain,84035,cavaillon,84035,CAVAILLON,84,VAUCLUSE,2.0,AIX-MARSEILLE,93,PROVENCE-ALPES-COTE D'AZUR,93,PROVENCE-ALPES-COTE-D'AZUR,622.0,162.0,146.0,157.0,145.0,0.0,0.0,0.0,0.0,0.0,30.0,23.0,85.0,15.0,0.0,610.0,97.0,27.0,146.0,5.04844,43.8347301,5.0484399836425515,43.834730176856674,"43.8347301769,5.04843998364",86.0
1960,HEP,les rochers sevigne,387797.2,6787394.5,NON,111.0,urbain,35360,vitre,35360,VITRE,35,ILLE-ET-VILAINE,14.0,RENNES,53,BRETAGNE,53,BRETAGNE,404.0,97.0,88.0,120.0,99.0,0.0,0.0,0.0,0.0,0.0,15.0,16.0,0.0,0.0,0.0,404.0,44.0,24.0,85.0,-1.1970297,48.11223029999999,-1.1970297276527482,48.112230351716974,"48.1122303517,-1.19702972765",91.7
3401,REP,les petits sentiers,585723.5,6815908.9,NON,111.0,urbain,28218,luce,28218,LUCE,28,EURE-ET-LOIR,18.0,ORLEANS-TOURS,24,CENTRE-VAL-DE-LOIRE,24,CENTRE-VAL-DE-LOIRE,446.0,98.0,102.0,88.0,57.0,15.0,16.0,25.0,32.0,88.0,17.0,22.0,0.0,0.0,0.0,345.0,60.0,29.0,95.0,1.4549895,48.43339810000001,1.454989472728926,48.43339819251506,"48.4333981925,1.45498947273",81.9
801,REP,dorval,655668.9,6849509.0,NON,111.0,urbain,94054,orly,94054,ORLY,94,VAL-DE-MARNE,24.0,CRETEIL,11,ILE-DE-FRANCE,11,ILE-DE-FRANCE,438.0,115.0,95.0,121.0,95.0,0.0,0.0,0.0,0.0,0.0,21.0,19.0,0.0,0.0,0.0,426.0,61.0,36.0,104.0,2.3971127999999995,48.7441745,2.3971128329751847,48.74417458110714,"48.7441745811,2.39711283298",76.1
2574,HEP,louis pergaud,932478.5,6745147.3,NON,112.0,intermédiaire,70228,faverney,70228,FAVERNEY,70,HAUTE-SAONE,3.0,BESANCON,43,FRANCHE-COMTE,27,BOURGOGNE-ET-FRANCHE-COMTE,293.0,78.0,76.0,74.0,59.0,0.0,0.0,0.0,0.0,0.0,5.0,12.0,0.0,31.0,0.0,287.0,34.0,15.0,55.0,6.1042598,47.7655862,6.104259767776432,47.76558628711735,"47.7655862871,6.10425976778",88.7
2028,HEP,rene cassin,695271.7,6702765.5,NON,211.0,intermédiaire,58086,cosne cours sur loire,58086,COSNE-COURS-SUR-LOIRE,58,NIEVRE,7.0,DIJON,26,BOURGOGNE,27,BOURGOGNE-ET-FRANCHE-COMTE,370.0,90.0,101.0,100.0,79.0,0.0,0.0,0.0,0.0,0.0,8.0,15.0,0.0,0.0,0.0,370.0,49.0,35.0,91.0,2.9372807,47.425222,2.9372807356797246,47.42522206702898,"47.425222067,2.93728073568",70.0
3745,HEP,jean jacques rousseau,569106.8,6313983.2,NON,112.0,intermédiaire,82079,labastide saint pierre,82079,LABASTIDE-SAINT-PIERRE,82,TARN-ET-GARONNE,16.0,TOULOUSE,73,MIDI-PYRENEES,76,OCCITANIE,628.0,181.0,148.0,143.0,142.0,0.0,0.0,0.0,0.0,0.0,15.0,23.0,38.0,0.0,0.0,614.0,93.0,40.0,153.0,1.3704214,43.9126974,1.370421397819097,43.91269743895039,"43.912697439,1.37042139782",75.7
2024,HEP,montaigu,936301.9,6844443.3,NON,111.0,urbain,54257,heillecourt,54257,HEILLECOURT,54,MEURTHE-ET-MOSELLE,12.0,NANCY-METZ,41,LORRAINE,44,GRAND-EST,412.0,95.0,89.0,103.0,98.0,0.0,0.0,0.0,0.0,0.0,16.0,18.0,0.0,0.0,0.0,385.0,74.0,18.0,94.0,6.2091147000000015,48.6569384,6.209114687609187,48.65693845030169,"48.6569384503,6.20911468761",94.9
231,HEP,victor hugo,756746.4,6256832.2,NON,111.0,urbain,34301,sete,34301,SETE,34,HERAULT,11.0,MONTPELLIER,91,LANGUEDOC-ROUSSILLON,76,OCCITANIE,478.0,118.0,115.0,130.0,103.0,0.0,0.0,0.0,0.0,0.0,29.0,17.0,0.0,0.0,0.0,466.0,69.0,23.0,101.0,3.7002457,43.4083433,3.700245734992596,43.40834331190287,"43.4083433119,3.70024573499",61.2
3084,HEP,jules verne,398364.6,6838631.4,NON,221.0,intermédiaire,50484,saint hilaire du harcouet,50484,SAINT-HILAIRE-DU-HARCOUET,50,MANCHE,5.0,CAEN,25,BASSE-NORMANDIE,28,NORMANDIE,385.0,84.0,82.0,81.0,97.0,6.0,7.0,7.0,9.0,29.0,9.0,17.0,0.0,13.0,0.0,344.0,56.0,15.0,87.0,-1.0908787,48.5775591,-1.0908786794701153,48.57755916374318,"48.5775591637,-1.09087867947",91.9
1033,HEP,jean baptiste vermay,681723.2,6849317.9,NON,112.0,intermédiaire,77470,tournan en brie,77470,TOURNAN-EN-BRIE,77,SEINE-ET-MARNE,24.0,CRETEIL,11,ILE-DE-FRANCE,11,ILE-DE-FRANCE,901.0,189.0,200.0,204.0,188.0,20.0,29.0,29.0,29.0,107.0,26.0,38.0,0.0,11.0,0.0,781.0,145.0,38.0,193.0,2.7514462,48.7437192,2.7514462028743014,48.74371922638341,"48.7437192264,2.75144620287",92.1
3698,HEP,elisabeth badinter,582149.6,6276815.1,NON,111.0,urbain,31445,quint fonsegrives,31445,QUINT-FONSEGRIVES,31,HAUTE-GARONNE,16.0,TOULOUSE,73,MIDI-PYRENEES,76,OCCITANIE,436.0,120.0,98.0,113.0,104.0,0.0,0.0,0.0,0.0,0.0,4.0,17.0,0.0,13.0,0.0,435.0,84.0,9.0,97.0,1.541308,43.5805987,1.5413080462649844,43.58059876378,"43.5805987638,1.54130804626",95.9
2379,HEP,voltaire,654845.5,6862786.7,NON,111.0,urbain,75056,paris,75111,PARIS 11E,75,PARIS,1.0,PARIS,11,ILE-DE-FRANCE,11,ILE-DE-FRANCE,444.0,109.0,110.0,105.0,120.0,0.0,0.0,0.0,0.0,0.0,19.0,17.0,43.0,30.0,0.0,444.0,92.0,29.0,135.0,2.3845079,48.8635286,2.3845078508866755,48.86352862523754,"48.8635286252,2.38450785089",88.3
2406,REP,jean zay,739369.4,7036170.8,NON,111.0,urbain,59207,escautpont,59207,ESCAUTPONT,59,NORD,9.0,LILLE,31,NORD-PAS-DE-CALAIS,32,HAUTS-DE-FRANCE,222.0,57.0,59.0,48.0,58.0,0.0,0.0,0.0,0.0,0.0,7.0,11.0,0.0,0.0,0.0,222.0,43.0,18.0,65.0,3.5531963,50.4218419,3.553196299570607,50.42184190247858,"50.4218419025,3.55319629957",87.7
2506,REP,marx dormoy,653047.8,6865577.4,NON,111.0,urbain,75056,paris,75118,PARIS 18E,75,PARIS,1.0,PARIS,11,ILE-DE-FRANCE,11,ILE-DE-FRANCE,481.0,102.0,109.0,113.0,112.0,7.0,11.0,12.0,15.0,45.0,23.0,23.0,67.0,52.0,0.0,436.0,78.0,24.0,106.0,2.3596964,48.8884961,2.359696353257164,48.88849618531902,"48.8884961853,2.35969635326",83.2
2503,REP,le luzard,671590.9,6860784.7,NON,111.0,urbain,77337,noisiel,77337,NOISIEL,77,SEINE-ET-MARNE,24.0,CRETEIL,11,ILE-DE-FRANCE,11,ILE-DE-FRANCE,457.0,91.0,121.0,115.0,119.0,0.0,0.0,0.0,0.0,0.0,32.0,19.0,8.0,21.0,0.0,446.0,65.0,34.0,105.0,2.6128902000000003,48.84648060000001,2.612890164548638,48.8464806013591,"48.8464806014,2.61289016455",86.9
2899,HEP,jean zay,651859.8,6839135.3,NON,111.0,urbain,91434,morsang sur orge,91434,MORSANG-SUR-ORGE,91,ESSONNE,25.0,VERSAILLES,11,ILE-DE-FRANCE,11,ILE-DE-FRANCE,654.0,168.0,135.0,141.0,137.0,15.0,16.0,16.0,15.0,62.0,20.0,26.0,0.0,0.0,0.0,581.0,109.0,43.0,167.0,2.3464803,48.6505991,2.3464802930034248,48.65059911834214,"48.6505991183,2.346480293",89.9
4081,HEP,les cotes,870084.3,6567950.0,NON,111.0,urbain,01289,peronnas,01289,PERONNAS,01,AIN,10.0,LYON,82,RHONE-ALPES,84,AUVERGNE-ET-RHONE-ALPES,610.0,132.0,130.0,119.0,120.0,14.0,24.0,29.0,29.0,96.0,26.0,27.0,63.0,0.0,0.0,501.0,84.0,32.0,128.0,5.205573,46.1900086,5.205573005858402,46.19000862274292,"46.1900086227,5.20557300586",89.6
1143,HEP,georges lavalley,400574.5,6898108.5,NON,111.0,urbain,50502,saint lo,50502,SAINT-LO,50,MANCHE,5.0,CAEN,25,BASSE-NORMANDIE,28,NORMANDIE,366.0,95.0,83.0,84.0,92.0,0.0,0.0,0.0,0.0,0.0,19.0,15.0,0.0,26.0,0.0,354.0,61.0,18.0,85.0,-1.1028364,49.1127635,-1.102836414946679,49.112763528004635,"49.112763528,-1.10283641495",89.5
3809,HEP,alphonse daudet,657565.2,6842889.1,NON,111.0,urbain,91201,draveil,91201,DRAVEIL,91,ESSONNE,25.0,VERSAILLES,11,ILE-DE-FRANCE,11,ILE-DE-FRANCE,661.0,170.0,179.0,142.0,170.0,0.0,0.0,0.0,0.0,0.0,25.0,23.0,0.0,0.0,0.0,661.0,123.0,39.0,173.0,2.4235581,48.684762,2.42355811250826,48.684762035475295,"48.6847620355,2.42355811251",97.0
191,HEP,masseot abaquesne,569357.4,6922242.5,NON,111.0,urbain,76116,boos,76116,BOOS,76,SEINE MARITIME,21.0,ROUEN,23,HAUTE-NORMANDIE,28,NORMANDIE,478.0,126.0,112.0,112.0,128.0,0.0,0.0,0.0,0.0,0.0,9.0,18.0,0.0,0.0,0.0,478.0,95.0,16.0,122.0,1.2010444,49.3862914,1.2010444086024636,49.38629143782622,"49.3862914378,1.2010444086",91.7
104,HEP,condorcet,588567.3,6251146.8,NON,112.0,intermédiaire,31396,nailloux,31396,NAILLOUX,31,HAUTE-GARONNE,16.0,TOULOUSE,73,MIDI-PYRENEES,76,OCCITANIE,525.0,159.0,117.0,123.0,111.0,0.0,0.0,0.0,0.0,0.0,15.0,20.0,0.0,0.0,0.0,510.0,81.0,21.0,115.0,1.6262533,43.3507394,1.6262532707243835,43.35073941732264,"43.3507394173,1.62625327072",91.7
3158,HEP,port lympia,1045567.4,6298108.1,NON,111.0,urbain,06088,nice,06088,NICE,06,ALPES-MARITIMES,23.0,NICE,93,PROVENCE-ALPES-COTE D'AZUR,93,PROVENCE-ALPES-COTE-D'AZUR,700.0,168.0,135.0,148.0,158.0,10.0,17.0,20.0,21.0,68.0,27.0,30.0,376.0,39.0,0.0,609.0,117.0,28.0,162.0,7.2878508,43.6975414,7.287850830399603,43.6975414283549,"43.6975414284,7.2878508304",98.0
3521,REPPLUS,vallon des pins,891601.7,6255200.7,OUI,111.0,urbain,13055,marseille,13215,MARSEILLE 15E,13,BOUCHES-DU-RHONE,2.0,AIX-MARSEILLE,93,PROVENCE-ALPES-COTE D'AZUR,93,PROVENCE-ALPES-COTE-D'AZUR,551.0,138.0,135.0,150.0,118.0,0.0,0.0,0.0,0.0,0.0,26.0,25.0,229.0,22.0,0.0,541.0,81.0,63.0,153.0,5.3631022,43.370135,5.3631021799752645,43.37013506152525,"43.3701350615,5.36310217998",61.4
1580,HEP,camille claudel,270214.4,6854457.0,NON,112.0,intermédiaire,22325,saint quay portrieux,22325,SAINT-QUAY-PORTRIEUX,22,COTES D'ARMOR,14.0,RENNES,53,BRETAGNE,53,BRETAGNE,430.0,112.0,118.0,95.0,105.0,0.0,0.0,0.0,0.0,0.0,12.0,16.0,0.0,0.0,0.0,430.0,95.0,19.0,127.0,-2.839362,48.6472,-2.839362023319425,48.647200028223075,"48.6472000282,-2.83936202332",94.4
3020,HEP,professeur albert debeyre,701476.5,7057295.6,NON,111.0,urbain,59360,loos,59360,LOOS,59,NORD,9.0,LILLE,31,NORD-PAS-DE-CALAIS,32,HAUTS-DE-FRANCE,380.0,100.0,99.0,98.0,83.0,0.0,0.0,0.0,0.0,0.0,14.0,15.0,0.0,0.0,0.0,380.0,56.0,37.0,97.0,3.0208256,50.6126896,3.020825560951612,50.61268967150463,"50.6126896715,3.02082556095",93.8
2836,HEP,claude nicolas ledoux,889937.5,6666422.2,NON,111.0,urbain,39198,dole,39198,DOLE,39,JURA,3.0,BESANCON,43,FRANCHE-COMTE,27,BOURGOGNE-ET-FRANCHE-COMTE,417.0,104.0,107.0,106.0,93.0,0.0,0.0,0.0,0.0,0.0,11.0,16.0,1.0,26.0,0.0,410.0,73.0,25.0,105.0,5.5033283,47.0709487,5.503328340336284,47.07094878437246,"47.0709487844,5.50332834034",88.3
3456,REP,cervantes,590161.7,6887156.3,NON,111.0,urbain,27681,vernon,27681,VERNON,27,EURE,21.0,ROUEN,23,HAUTE-NORMANDIE,28,NORMANDIE,531.0,137.0,112.0,123.0,101.0,16.0,17.0,11.0,14.0,58.0,28.0,25.0,0.0,25.0,0.0,473.0,80.0,31.0,121.0,1.4966418,49.0748466,1.496641805732991,49.07484663769954,"49.0748466377,1.49664180573",91.9
3833,HEP,la fontaine,311913.5,6721557.0,NON,112.0,intermédiaire,44098,missillac,44098,MISSILLAC,44,LOIRE-ATLANTIQUE,17.0,NANTES,52,PAYS DE LA LOIRE,52,PAYS-DE-LA-LOIRE,340.0,81.0,101.0,73.0,73.0,0.0,0.0,0.0,0.0,0.0,14.0,13.0,0.0,0.0,0.0,328.0,56.0,17.0,93.0,-2.1567923,47.4802816,-2.156792303093691,47.48028166778329,"47.4802816678,-2.15679230309",85.9
2405,REP,victor hugo,606272.9,6205181.6,NON,221.0,intermédiaire,09160,lavelanet,09160,LAVELANET,09,ARIEGE,16.0,TOULOUSE,73,MIDI-PYRENEES,76,OCCITANIE,260.0,75.0,60.0,72.0,53.0,0.0,0.0,0.0,0.0,0.0,10.0,12.0,0.0,0.0,0.0,260.0,46.0,12.0,62.0,1.8527274,42.9398982,1.8527273724792133,42.93989821922662,"42.9398982192,1.85272737248",96.8
1873,HEP,antoine de saint exupery,666946.3,6854790.3,NON,111.0,urbain,94055,ormesson sur marne,94055,ORMESSON-SUR-MARNE,94,VAL-DE-MARNE,24.0,CRETEIL,11,ILE-DE-FRANCE,11,ILE-DE-FRANCE,440.0,115.0,100.0,99.0,107.0,0.0,0.0,0.0,0.0,0.0,14.0,16.0,0.0,18.0,0.0,421.0,81.0,23.0,115.0,2.5500682999999995,48.7923492,2.55006832218742,48.792349273765026,"48.7923492738,2.55006832219",97.2
1744,HEP,le racinay,613433.5,6837898.0,NON,112.0,intermédiaire,78517,rambouillet,78517,RAMBOUILLET,78,YVELINES,25.0,VERSAILLES,11,ILE-DE-FRANCE,11,ILE-DE-FRANCE,690.0,173.0,152.0,144.0,174.0,8.0,15.0,11.0,13.0,47.0,23.0,27.0,0.0,0.0,0.0,643.0,141.0,11.0,164.0,1.8251399,48.6354688,1.8251399149954133,48.6354688614953,"48.6354688615,1.825139915",96.3
3258,HEP,roz avel,213683.1,6844285.6,NON,400.0,rural,29067,guerlesquin,29067,GUERLESQUIN,29,FINISTERE,14.0,RENNES,53,BRETAGNE,53,BRETAGNE,246.0,64.0,61.0,60.0,61.0,0.0,0.0,0.0,0.0,0.0,7.0,12.0,58.0,0.0,0.0,246.0,43.0,16.0,71.0,-3.5925596,48.5159974,-3.5925596207170685,48.51599742178757,"48.5159974218,-3.59255962072",87.3
2014,HEP,le cedre,711772.0,6260264.4,NON,112.0,intermédiaire,34178,murviel les beziers,34178,MURVIEL-LES-BEZIERS,34,HERAULT,11.0,MONTPELLIER,91,LANGUEDOC-ROUSSILLON,76,OCCITANIE,488.0,144.0,116.0,119.0,97.0,0.0,0.0,0.0,0.0,0.0,9.0,19.0,0.0,27.0,0.0,476.0,85.0,31.0,125.0,3.1453471,43.4413873,3.145347081598976,43.441387352317946,"43.4413873523,3.1453470816",92.6
2577,HEP,la lauziere,957420.6,6499436.3,NON,300.0,rural,73002,aiguebelle,73002,AIGUEBELLE,73,SAVOIE,8.0,GRENOBLE,82,RHONE-ALPES,84,AUVERGNE-ET-RHONE-ALPES,292.0,79.0,77.0,70.0,66.0,0.0,0.0,0.0,0.0,0.0,11.0,12.0,254.0,59.0,0.0,292.0,36.0,21.0,71.0,6.2998946,45.5459995,6.299894611523726,45.545999551382295,"45.5459995514,6.29989461152",76.4
1621,HEP,pablo picasso,848221.7,6517321.3,NON,111.0,urbain,69029,bron,69029,BRON,69,RHONE,10.0,LYON,82,RHONE-ALPES,84,AUVERGNE-ET-RHONE-ALPES,607.0,144.0,144.0,118.0,133.0,14.0,15.0,10.0,16.0,55.0,19.0,29.0,17.0,27.0,0.0,539.0,105.0,21.0,131.0,4.9063413,45.7393811,4.906341300520359,45.73938113655888,"45.7393811366,4.90634130052",97.0
2607,HEP,lubet barbon,417996.4,6315111.3,NON,111.0,urbain,40281,saint pierre du mont,40281,SAINT-PIERRE-DU-MONT,40,LANDES,4.0,BORDEAUX,72,AQUITAINE,75,NOUVELLE-AQUITAINE,584.0,98.0,123.0,128.0,125.0,29.0,30.0,25.0,26.0,110.0,9.0,27.0,0.0,11.0,0.0,474.0,116.0,29.0,152.0,-0.5096651,43.8785954,-0.5096651367623499,43.87859545040066,"43.8785954504,-0.509665136762",89.8
2589,HEP,louis lumiere,633896.9,6863556.3,NON,111.0,urbain,78372,marly le roi,78372,MARLY-LE-ROI,78,YVELINES,25.0,VERSAILLES,11,ILE-DE-FRANCE,11,ILE-DE-FRANCE,1040.0,266.0,245.0,254.0,275.0,0.0,0.0,0.0,0.0,0.0,22.0,37.0,0.0,0.0,0.0,1040.0,195.0,40.0,253.0,2.0988627,48.8686402,2.098862734914792,48.868640222686004,"48.8686402227,2.09886273491",86.7
2665,REP,rene cassin,833924.7,6303344.7,NON,111.0,urbain,13108,tarascon,13108,TARASCON,13,BOUCHES-DU-RHONE,2.0,AIX-MARSEILLE,93,PROVENCE-ALPES-COTE D'AZUR,93,PROVENCE-ALPES-COTE-D'AZUR,773.0,176.0,178.0,165.0,168.0,24.0,14.0,23.0,25.0,86.0,39.0,34.0,70.0,10.0,0.0,687.0,79.0,55.0,159.0,4.6645172,43.8164114,4.664517212406342,43.81641142545226,"43.8164114255,4.66451721241",77.6
702,REP,jean de saint aubert,701049.5,7042643.9,NON,111.0,urbain,62907,libercourt,62907,LIBERCOURT,62,PAS-DE-CALAIS,9.0,LILLE,31,NORD-PAS-DE-CALAIS,32,HAUTS-DE-FRANCE,304.0,63.0,76.0,81.0,84.0,0.0,0.0,0.0,0.0,0.0,22.0,15.0,0.0,6.0,0.0,304.0,61.0,21.0,87.0,3.014764200000001,50.4811856,3.0147642221346174,50.48118560824436,"50.4811856082,3.01476422213",80.7
2316,HEP,les quatre moulins,144394.1,6835986.2,NON,111.0,urbain,29019,brest,29019,BREST,29,FINISTERE,14.0,RENNES,53,BRETAGNE,53,BRETAGNE,468.0,108.0,112.0,108.0,116.0,0.0,0.0,0.0,0.0,0.0,21.0,22.0,0.0,13.0,93.0,444.0,64.0,22.0,94.0,-4.5158514,48.3860164,-4.515851427861894,48.38601647017992,"48.3860164702,-4.51585142786",88.8
1885,HEP,le volozen,262914.0,6828352.8,NON,112.0,intermédiaire,22262,quintin,22262,QUINTIN,22,COTES D'ARMOR,14.0,RENNES,53,BRETAGNE,53,BRETAGNE,508.0,122.0,112.0,130.0,144.0,0.0,0.0,0.0,0.0,0.0,16.0,19.0,0.0,0.0,0.0,508.0,84.0,29.0,133.0,-2.9116782000000003,48.4081418,-2.911678245863484,48.408141801588364,"48.4081418016,-2.91167824586",93.9
3600,HEP,nicolas tronchon,686405.4,6882010.3,NON,112.0,intermédiaire,77437,saint soupplets,77437,SAINT-SOUPPLETS,77,SEINE-ET-MARNE,24.0,CRETEIL,11,ILE-DE-FRANCE,11,ILE-DE-FRANCE,361.0,84.0,88.0,86.0,90.0,0.0,0.0,0.0,0.0,0.0,18.0,16.0,0.0,0.0,0.0,348.0,50.0,21.0,78.0,2.8140743,49.03783410000001,2.8140742603375624,49.037834125006846,"49.037834125,2.81407426034",88.3
994,HEP,ambrussum,791457.5,6288275.7,NON,111.0,urbain,34145,lunel,34145,LUNEL,34,HERAULT,11.0,MONTPELLIER,91,LANGUEDOC-ROUSSILLON,76,OCCITANIE,769.0,165.0,185.0,164.0,181.0,12.0,17.0,15.0,17.0,61.0,21.0,31.0,41.0,0.0,0.0,695.0,105.0,36.0,160.0,4.1341027000000015,43.6876045,4.134102690550228,43.68760454862131,"43.6876045486,4.13410269055",87.5
464,HEP,vaugelas,869653.5,6536545.6,NON,112.0,intermédiaire,01244,meximieux,01244,MEXIMIEUX,01,AIN,10.0,LYON,82,RHONE-ALPES,84,AUVERGNE-ET-RHONE-ALPES,840.0,187.0,168.0,195.0,199.0,16.0,16.0,23.0,25.0,80.0,23.0,34.0,115.0,26.0,0.0,749.0,139.0,47.0,204.0,5.1887045,45.9074324,5.188704454188941,45.90743247351206,"45.9074324735,5.18870445419",88.5
1717,HEP,hastignan,404402.8,6428524.0,NON,111.0,urbain,33449,saint medard en jalles,33449,SAINT-MEDARD-EN-JALLES,33,GIRONDE,4.0,BORDEAUX,72,AQUITAINE,75,NOUVELLE-AQUITAINE,921.0,242.0,203.0,199.0,206.0,5.0,17.0,18.0,17.0,57.0,14.0,40.0,0.0,25.0,0.0,850.0,179.0,42.0,234.0,-0.7455028,44.8927943,-0.7455028415317863,44.89279434010589,"44.8927943401,-0.745502841532",88.4
4177,HEP,saint exupery,648154.8,6858562.8,NON,111.0,urbain,92075,vanves,92075,VANVES,92,HAUTS-DE-SEINE,25.0,VERSAILLES,11,ILE-DE-FRANCE,11,ILE-DE-FRANCE,453.0,117.0,115.0,105.0,104.0,0.0,0.0,0.0,0.0,0.0,9.0,16.0,0.0,30.0,0.0,441.0,87.0,17.0,103.0,2.2938277,48.8250395,2.293827670213598,48.82503954781294,"48.8250395478,2.29382767021",94.1
4018,HEP,paul eluard,603064.6,7064960.4,NON,111.0,urbain,62746,saint etienne au mont,62746,SAINT-ETIENNE-AU-MONT,62,PAS-DE-CALAIS,9.0,LILLE,31,NORD-PAS-DE-CALAIS,32,HAUTS-DE-FRANCE,490.0,120.0,110.0,110.0,113.0,6.0,10.0,6.0,5.0,27.0,14.0,23.0,0.0,0.0,0.0,453.0,78.0,38.0,123.0,1.6310198,50.6739353,1.6310197923255458,50.67393534528132,"50.6739353453,1.63101979233",91.7
2310,HEP,pierre brossolette,839288.2,6514542.8,NON,111.0,urbain,69149,oullins,69149,OULLINS,69,RHONE,10.0,LYON,82,RHONE-ALPES,84,AUVERGNE-ET-RHONE-ALPES,430.0,92.0,90.0,96.0,99.0,12.0,12.0,16.0,13.0,53.0,24.0,19.0,43.0,22.0,0.0,377.0,38.0,21.0,66.0,4.7906742,45.716251,4.7906742351579625,45.716251000795744,"45.7162510008,4.79067423516",73.5
1236,HEP,claude debussy,633746.7,6866233.5,NON,111.0,urbain,78551,saint germain en laye,78551,SAINT-GERMAIN-EN-LAYE,78,YVELINES,25.0,VERSAILLES,11,ILE-DE-FRANCE,11,ILE-DE-FRANCE,868.0,225.0,193.0,226.0,224.0,0.0,0.0,0.0,0.0,0.0,21.0,31.0,193.0,89.0,0.0,868.0,203.0,14.0,235.0,2.0963977,48.8926993,2.096397715909568,48.89269930967816,"48.8926993097,2.09639771591",96.5
2582,HEP,ferdinand buisson,654245.6,6843470.3,NON,111.0,urbain,91326,juvisy sur orge,91326,JUVISY-SUR-ORGE,91,ESSONNE,25.0,VERSAILLES,11,ILE-DE-FRANCE,11,ILE-DE-FRANCE,585.0,169.0,139.0,142.0,135.0,0.0,0.0,0.0,0.0,0.0,37.0,21.0,1.0,28.0,0.0,585.0,94.0,39.0,133.0,2.3784037,48.689763,2.3784037200377672,48.6897630053322,"48.6897630053,2.37840372004",87.9
2233,HEP,le trion,611276.8,7060829.5,NON,112.0,intermédiaire,62773,samer,62773,SAMER,62,PAS-DE-CALAIS,9.0,LILLE,31,NORD-PAS-DE-CALAIS,32,HAUTS-DE-FRANCE,586.0,171.0,145.0,126.0,144.0,0.0,0.0,0.0,0.0,0.0,6.0,24.0,0.0,0.0,0.0,586.0,90.0,33.0,139.0,1.7479021,50.6380929,1.74790207894656,50.638092937720614,"50.6380929377,1.74790207895",88.3
212,HEP,francois mauriac,663833.7,6881891.2,NON,112.0,intermédiaire,95351,louvres,95351,LOUVRES,95,VAL-D'OISE,25.0,VERSAILLES,11,ILE-DE-FRANCE,11,ILE-DE-FRANCE,501.0,131.0,114.0,124.0,114.0,0.0,0.0,0.0,0.0,0.0,21.0,19.0,0.0,0.0,0.0,483.0,75.0,25.0,117.0,2.5053895,49.0358886,2.5053895035745093,49.03588862760974,"49.0358886276,2.50538950357",85.5
1036,HEP,leonard de vinci,675870.1,6862085.1,NON,111.0,urbain,77438,saint thibault des vignes,77438,SAINT-THIBAULT-DES-VIGNES,77,SEINE-ET-MARNE,24.0,CRETEIL,11,ILE-DE-FRANCE,11,ILE-DE-FRANCE,483.0,121.0,135.0,89.0,126.0,0.0,0.0,0.0,0.0,0.0,11.0,19.0,0.0,27.0,0.0,471.0,78.0,18.0,99.0,2.6711251,48.85834970000001,2.67112512948432,48.85834976890519,"48.8583497689,2.67112512948",91.9
4112,HEP,jean moulin,410458.5,6261955.4,NON,221.0,intermédiaire,64061,artix,64061,ARTIX,64,PYRENEES-ATLANTIQUES,4.0,BORDEAUX,72,AQUITAINE,75,NOUVELLE-AQUITAINE,467.0,134.0,101.0,136.0,96.0,0.0,0.0,0.0,0.0,0.0,11.0,18.0,65.0,0.0,0.0,467.0,83.0,26.0,118.0,-0.5734326,43.3977467,-0.5734326444426626,43.397746708762035,"43.3977467088,-0.573432644443",92.8
900,HEP,henri cahn,664998.7,6860285.0,NON,111.0,urbain,94015,bry sur marne,94015,BRY-SUR-MARNE,94,VAL-DE-MARNE,24.0,CRETEIL,11,ILE-DE-FRANCE,11,ILE-DE-FRANCE,659.0,181.0,163.0,160.0,155.0,0.0,0.0,0.0,0.0,0.0,18.0,25.0,0.0,0.0,0.0,659.0,118.0,23.0,153.0,2.5231062,48.8416623,2.5231062226995538,48.84166236164089,"48.8416623616,2.5231062227",88.4
1446,HEP,lou castellas,815901.5,6308348.3,NON,111.0,urbain,30156,marguerittes,30156,MARGUERITTES,30,GARD,11.0,MONTPELLIER,91,LANGUEDOC-ROUSSILLON,76,OCCITANIE,803.0,194.0,203.0,168.0,176.0,12.0,16.0,17.0,15.0,60.0,19.0,31.0,1.0,51.0,0.0,741.0,97.0,36.0,174.0,4.4417002,43.8646203,4.4417002054114665,43.864620360705615,"43.8646203607,4.44170020541",84.4
1833,HEP,louise michel,756627.4,6315544.1,NON,221.0,intermédiaire,34111,ganges,34111,GANGES,34,HERAULT,11.0,MONTPELLIER,91,LANGUEDOC-ROUSSILLON,76,OCCITANIE,630.0,150.0,169.0,179.0,121.0,0.0,0.0,0.0,0.0,0.0,20.0,24.0,0.0,0.0,0.0,619.0,86.0,20.0,117.0,3.705248000000001,43.9366245,3.7052480141220863,43.93662454062416,"43.9366245406,3.70524801412",88.9
2994,HEP,jean baptiste desfilhes,706205.0,6566407.6,NON,400.0,rural,03022,bellenaves,03022,BELLENAVES,03,ALLIER,6.0,CLERMONT-FERRAND,83,AUVERGNE,84,AUVERGNE-ET-RHONE-ALPES,276.0,62.0,75.0,71.0,68.0,0.0,0.0,0.0,0.0,0.0,3.0,12.0,0.0,0.0,0.0,276.0,41.0,17.0,77.0,3.080464,46.1974824,3.0804640318499583,46.19748248713058,"46.1974824871,3.08046403185",95.9
1918,HEP,simin palay,420945.3,6254532.9,NON,111.0,urbain,64335,lescar,64335,LESCAR,64,PYRENEES-ATLANTIQUES,4.0,BORDEAUX,72,AQUITAINE,75,NOUVELLE-AQUITAINE,768.0,200.0,195.0,189.0,171.0,0.0,0.0,0.0,0.0,0.0,20.0,28.0,44.0,37.0,0.0,755.0,155.0,31.0,201.0,-0.4401862,43.33522720000001,-0.4401862282915508,43.33522721341361,"43.3352272134,-0.440186228292",91.8
1614,HEP,aturri,340521.7,6273894.1,NON,111.0,urbain,64496,saint pierre dirube,64496,SAINT-PIERRE-D'IRUBE,64,PYRENEES-ATLANTIQUES,4.0,BORDEAUX,72,AQUITAINE,75,NOUVELLE-AQUITAINE,678.0,187.0,149.0,163.0,179.0,0.0,0.0,0.0,0.0,0.0,16.0,24.0,110.0,28.0,0.0,678.0,128.0,31.0,179.0,-1.4432124,43.4730914,-1.4432124108863973,43.473091420434656,"43.4730914204,-1.44321241089",95.5
741,REP,saint exupery,741512.7,7031875.6,NON,111.0,urbain,59447,onnaing,59447,ONNAING,59,NORD,9.0,LILLE,31,NORD-PAS-DE-CALAIS,32,HAUTS-DE-FRANCE,433.0,109.0,115.0,96.0,113.0,0.0,0.0,0.0,0.0,0.0,18.0,19.0,0.0,10.0,0.0,433.0,42.0,52.0,101.0,3.5828662,50.3831453,3.5828661629108627,50.38314539443764,"50.3831453944,3.58286616291",74.7
3759,HEP,du blanc marais,810318.5,6972747.9,NON,112.0,intermédiaire,08365,rimogne,08365,RIMOGNE,08,ARDENNES,19.0,REIMS,21,CHAMPAGNE-ARDENNE,44,GRAND-EST,355.0,76.0,85.0,58.0,86.0,11.0,15.0,11.0,13.0,50.0,9.0,16.0,0.0,0.0,0.0,305.0,45.0,7.0,57.0,4.532665,49.8438962,4.532664999050487,49.8438962597397,"49.8438962597,4.53266499905",94.7
3306,HEP,jean monnet,769792.0,6882719.4,NON,111.0,urbain,51230,epernay,51230,EPERNAY,51,MARNE,19.0,REIMS,21,CHAMPAGNE-ARDENNE,44,GRAND-EST,481.0,119.0,134.0,113.0,103.0,0.0,0.0,0.0,0.0,0.0,17.0,18.0,0.0,0.0,0.0,469.0,66.0,23.0,96.0,3.9545786,49.0405607,3.954578647767559,49.040560776331645,"49.0405607763,3.95457864777",90.2
1691,HEP,les hyverneaux,672260.1,6849724.0,NON,111.0,urbain,77249,lesigny,77249,LESIGNY,77,SEINE-ET-MARNE,24.0,CRETEIL,11,ILE-DE-FRANCE,11,ILE-DE-FRANCE,659.0,183.0,186.0,143.0,134.0,0.0,0.0,0.0,0.0,0.0,14.0,24.0,0.0,0.0,0.0,646.0,115.0,24.0,151.0,2.6227287999999995,48.7470344,2.6227288118790897,48.747034418701,"48.7470344187,2.62272881188",93.2
2852,HEP,jules verne,682008.4,6175492.3,NON,111.0,urbain,66195,le soler,66195,LE SOLER,66,PYRENEES-ORIENTALES,11.0,MONTPELLIER,91,LANGUEDOC-ROUSSILLON,76,OCCITANIE,584.0,153.0,147.0,136.0,147.0,0.0,0.0,0.0,0.0,0.0,28.0,22.0,22.0,101.0,0.0,583.0,91.0,34.0,154.0,2.7807668,42.6788324,2.780766786201529,42.67883242405107,"42.6788324241,2.7807667862",83.4
1206,HEP,honore de balzac,631753.5,6314428.0,NON,111.0,urbain,81004,albi,81004,ALBI,81,TARN,16.0,TOULOUSE,73,MIDI-PYRENEES,76,OCCITANIE,622.0,170.0,169.0,143.0,140.0,0.0,0.0,0.0,0.0,0.0,15.0,22.0,18.0,0.0,0.0,622.0,121.0,35.0,171.0,2.1502054,43.925551,2.150205396981604,43.925551006704644,"43.9255510067,2.15020539698",88.6
509,HEP,pablo neruda,530354.4,6701860.7,NON,111.0,urbain,37233,saint pierre des corps,37233,SAINT-PIERRE-DES-CORPS,37,INDRE-ET-LOIRE,18.0,ORLEANS-TOURS,24,CENTRE-VAL-DE-LOIRE,24,CENTRE-VAL-DE-LOIRE,363.0,68.0,83.0,79.0,70.0,12.0,10.0,17.0,12.0,51.0,12.0,20.0,0.0,7.0,0.0,300.0,43.0,18.0,70.0,0.7506599,47.3953412,0.7506599073076334,47.39534124989182,"47.3953412499,0.750659907308",85.7
597,HEP,george sand,622331.6,6609653.7,NON,221.0,intermédiaire,36046,la chatre,36046,LA CHATRE,36,INDRE,18.0,ORLEANS-TOURS,24,CENTRE-VAL-DE-LOIRE,24,CENTRE-VAL-DE-LOIRE,572.0,120.0,132.0,134.0,143.0,11.0,5.0,7.0,8.0,31.0,19.0,24.0,0.0,22.0,0.0,529.0,81.0,29.0,125.0,1.9856776000000005,46.5824342,1.9856775688916841,46.58243421037221,"46.5824342104,1.98567756889",82.9
2069,HEP,queral,316164.1,6717060.1,NON,112.0,intermédiaire,44129,pontchateau,44129,PONTCHATEAU,44,LOIRE-ATLANTIQUE,17.0,NANTES,52,PAYS DE LA LOIRE,52,PAYS-DE-LA-LOIRE,553.0,124.0,92.0,122.0,87.0,31.0,26.0,29.0,30.0,116.0,9.0,25.0,0.0,29.0,0.0,425.0,82.0,44.0,138.0,-2.0966177,47.4423694,-2.096617726985255,47.442369442908976,"47.4423694429,-2.09661772699",89.5
3926,HEP,val de voise,602917.3,6825746.9,NON,112.0,intermédiaire,28168,gallardon,28168,GALLARDON,28,EURE-ET-LOIR,18.0,ORLEANS-TOURS,24,CENTRE-VAL-DE-LOIRE,24,CENTRE-VAL-DE-LOIRE,496.0,149.0,116.0,109.0,122.0,0.0,0.0,0.0,0.0,0.0,13.0,20.0,0.0,0.0,0.0,496.0,84.0,18.0,122.0,1.6851872,48.5246878,1.6851872476989116,48.52468789539042,"48.5246878954,1.6851872477",89.4
981,HEP,joseph bedier,864487.0,6465594.2,NON,400.0,rural,26143,le grand serre,26143,LE GRAND-SERRE,26,DROME,8.0,GRENOBLE,82,RHONE-ALPES,84,AUVERGNE-ET-RHONE-ALPES,323.0,84.0,83.0,81.0,75.0,0.0,0.0,0.0,0.0,0.0,2.0,12.0,52.0,0.0,0.0,323.0,41.0,6.0,54.0,5.0977716,45.2700329,5.097771587086274,45.27003292831088,"45.2700329283,5.09777158709",92.6
2422,REP,les fougeres,565492.5,6902922.5,NON,111.0,urbain,27375,louviers,27375,LOUVIERS,27,EURE,21.0,ROUEN,23,HAUTE-NORMANDIE,28,NORMANDIE,324.0,90.0,84.0,76.0,74.0,0.0,0.0,0.0,0.0,0.0,16.0,14.0,44.0,0.0,0.0,324.0,54.0,11.0,80.0,1.1540618,49.2118618,1.1540618327045968,49.21186180291999,"49.2118618029,1.1540618327",97.4
3765,HEP,guy de maupassant,453697.3,6895128.1,NON,112.0,intermédiaire,14623,saint martin de fontenay,14623,SAINT-MARTIN-DE-FONTENAY,14,CALVADOS,5.0,CAEN,25,BASSE-NORMANDIE,28,NORMANDIE,613.0,165.0,147.0,151.0,150.0,0.0,0.0,0.0,0.0,0.0,10.0,22.0,0.0,29.0,0.0,613.0,118.0,23.0,157.0,-0.3741662,49.1086016,-0.3741661551297925,49.108601656050475,"49.1086016561,-0.37416615513",91.0
518,HEP,jacques monod,922899.6,6921675.3,NON,111.0,urbain,57306,hayange,57306,HAYANGE,57,MOSELLE,12.0,NANCY-METZ,41,LORRAINE,44,GRAND-EST,310.0,80.0,81.0,72.0,77.0,0.0,0.0,0.0,0.0,0.0,6.0,12.0,63.0,23.0,0.0,310.0,45.0,12.0,59.0,6.0680220999999985,49.3556419,6.068022081260168,49.355641938009825,"49.355641938,6.06802208126",86.4
3969,HEP,georges pompidou,645303.9,6866897.2,NON,111.0,urbain,92026,courbevoie,92026,COURBEVOIE,92,HAUTS-DE-SEINE,25.0,VERSAILLES,11,ILE-DE-FRANCE,11,ILE-DE-FRANCE,699.0,160.0,158.0,156.0,146.0,16.0,15.0,17.0,20.0,68.0,20.0,29.0,0.0,32.0,3.0,620.0,138.0,23.0,167.0,2.2539259,48.8997532,2.253925853384167,48.8997532209786,"48.899753221,2.25392585338",87.2
767,REP,jean vilar,620110.5,6875849.6,NON,111.0,urbain,78440,les mureaux,78440,LES MUREAUX,78,YVELINES,25.0,VERSAILLES,11,ILE-DE-FRANCE,11,ILE-DE-FRANCE,592.0,146.0,144.0,154.0,136.0,0.0,0.0,0.0,0.0,0.0,40.0,26.0,0.0,0.0,0.0,580.0,61.0,70.0,146.0,1.9086281000000005,48.97761679999999,1.9086280969083045,48.977616854721,"48.9776168547,1.90862809691",69.4
4046,HEP,jean moulin,673273.4,7040080.1,NON,111.0,urbain,62083,barlin,62083,BARLIN,62,PAS-DE-CALAIS,9.0,LILLE,31,NORD-PAS-DE-CALAIS,32,HAUTS-DE-FRANCE,582.0,130.0,133.0,137.0,132.0,5.0,14.0,15.0,16.0,50.0,21.0,25.0,0.0,0.0,0.0,532.0,71.0,48.0,129.0,2.6241883,50.4576018,2.624188346514828,50.457601873718396,"50.4576018737,2.62418834651",78.3
4049,HEP,le vieux chene,468396.8,6738542.5,NON,211.0,intermédiaire,72154,la fleche,72154,LA FLECHE,72,SARTHE,17.0,NANTES,52,PAYS DE LA LOIRE,52,PAYS-DE-LA-LOIRE,448.0,107.0,104.0,113.0,112.0,0.0,0.0,0.0,0.0,0.0,13.0,18.0,0.0,35.0,0.0,436.0,57.0,24.0,109.0,-0.08913539999999999,47.7064943,-0.08913544797464258,47.70649431974051,"47.7064943197,-0.0891354479746",96.0
2819,HEP,jacques cartier,611638.1,6877259.0,NON,111.0,urbain,78314,issou,78314,ISSOU,78,YVELINES,25.0,VERSAILLES,11,ILE-DE-FRANCE,11,ILE-DE-FRANCE,611.0,158.0,172.0,136.0,145.0,0.0,0.0,0.0,0.0,0.0,15.0,24.0,0.0,0.0,0.0,611.0,104.0,39.0,161.0,1.7926093,48.98918010000001,1.7926092768151949,48.98918014865932,"48.9891801487,1.79260927682",93.0
2936,HEP,edouard herriot,851647.9,6689812.6,NON,111.0,urbain,21166,chenove,21166,CHENOVE,21,COTE D'OR,7.0,DIJON,26,BOURGOGNE,27,BOURGOGNE-ET-FRANCHE-COMTE,273.0,72.0,57.0,77.0,67.0,0.0,0.0,0.0,0.0,0.0,12.0,13.0,0.0,16.0,0.0,273.0,58.0,15.0,74.0,5.0067577000000005,47.29128660000001,5.006757743927655,47.29128663045881,"47.2912866305,5.00675774393",93.5
421,HEP,emile zola,460819.9,6903317.7,NON,111.0,urbain,14301,giberville,14301,GIBERVILLE,14,CALVADOS,5.0,CAEN,25,BASSE-NORMANDIE,28,NORMANDIE,482.0,119.0,113.0,117.0,118.0,0.0,0.0,0.0,0.0,0.0,24.0,19.0,168.0,28.0,0.0,467.0,61.0,29.0,104.0,-0.2813651,49.1848648,-0.2813651192909672,49.18486481471841,"49.1848648147,-0.281365119291",90.8
123,HEP,paul langevin,447212.8,6788905.3,NON,211.0,intermédiaire,53097,evron,53097,EVRON,53,MAYENNE,17.0,NANTES,52,PAYS DE LA LOIRE,52,PAYS-DE-LA-LOIRE,419.0,99.0,82.0,80.0,80.0,15.0,14.0,13.0,12.0,54.0,17.0,19.0,0.0,0.0,0.0,341.0,38.0,34.0,86.0,-0.4002657,48.1515198,-0.40026569248259214,48.15151988295435,"48.151519883,-0.400265692483",92.7
2934,HEP,villey desmeserets,455629.5,6902153.6,NON,111.0,urbain,14118,caen,14118,CAEN,14,CALVADOS,5.0,CAEN,25,BASSE-NORMANDIE,28,NORMANDIE,401.0,96.0,101.0,103.0,85.0,0.0,0.0,0.0,0.0,0.0,6.0,15.0,218.0,38.0,0.0,385.0,64.0,20.0,94.0,-0.3518112,49.1724488,-0.35181124353838744,49.172448847052706,"49.1724488471,-0.351811243538",94.2
3712,HEP,chevreul,433120.5,6713575.9,NON,111.0,urbain,49007,angers,49007,ANGERS,49,MAINE-ET-LOIRE,17.0,NANTES,52,PAYS DE LA LOIRE,52,PAYS-DE-LA-LOIRE,567.0,135.0,139.0,142.0,139.0,0.0,0.0,0.0,0.0,0.0,20.0,21.0,0.0,0.0,0.0,555.0,114.0,20.0,147.0,-0.5441236,47.4686289,-0.5441236418514922,47.468628927623655,"47.4686289276,-0.544123641851",94.2
1244,HEP,raymond queneau,652632.7,6859953.7,NON,111.0,urbain,75056,paris,75105,PARIS  5E,75,PARIS,1.0,PARIS,11,ILE-DE-FRANCE,11,ILE-DE-FRANCE,495.0,120.0,125.0,116.0,126.0,0.0,0.0,0.0,0.0,0.0,9.0,16.0,64.0,50.0,0.0,487.0,107.0,14.0,129.0,2.3546625,48.8378926,2.354662510621332,48.83789266411654,"48.8378926641,2.35466251062",92.0
819,REPPLUS,trianon,724956.6,1617390.7,NON,111.0,urbain,97210,le francois,97210,LE FRANCOIS,972,MARTINIQUE,31.0,MARTINIQUE,2,MARTINIQUE,2,MARTINIQUE,273.0,68.0,67.0,75.0,63.0,0.0,0.0,0.0,0.0,0.0,8.0,12.0,61.0,15.0,0.0,273.0,57.0,32.0,91.0,-60.9115703,14.620528899999998,-60.91157033423602,14.620528937675743,"14.6205289377,-60.9115703342",91.0
1403,REPPLUS,belle de mai,893671.0,6248949.0,NON,111.0,urbain,13055,marseille,13203,MARSEILLE  3E,13,BOUCHES-DU-RHONE,2.0,AIX-MARSEILLE,93,PROVENCE-ALPES-COTE D'AZUR,93,PROVENCE-ALPES-COTE-D'AZUR,549.0,145.0,141.0,135.0,128.0,0.0,0.0,0.0,0.0,0.0,43.0,24.0,282.0,24.0,0.0,549.0,64.0,46.0,123.0,5.3862788,43.3133607,5.386278807068317,43.313360758118094,"43.3133607581,5.38627880707",76.2
1382,REPPLUS,les deux canons,341571.7,7689323.7,OUI,111.0,urbain,97411,saint denis,97411,SAINT-DENIS,974,LA REUNION,28.0,LA REUNION,4,LA REUNION,4,LA-REUNION,1042.0,247.0,219.0,231.0,206.0,32.0,31.0,32.0,32.0,127.0,39.0,47.0,0.0,34.0,0.0,903.0,128.0,81.0,214.0,55.4768599,-20.8895626,55.47685990804117,-20.889562646544327,"-20.8895626465,55.476859908",85.3
100,HEP,marceau lapierre,771192.4,6334841.7,NON,400.0,rural,30269,saint jean du gard,30269,SAINT-JEAN-DU-GARD,30,GARD,11.0,MONTPELLIER,91,LANGUEDOC-ROUSSILLON,76,OCCITANIE,168.0,38.0,41.0,44.0,45.0,0.0,0.0,0.0,0.0,0.0,2.0,8.0,0.0,26.0,0.0,168.0,28.0,14.0,56.0,3.8893362,44.108971,3.8893361973243423,44.10897106863651,"44.1089710686,3.88933619732",86.8
4074,HEP,elsa triolet,695178.0,6808063.1,NON,112.0,intermédiaire,77482,varennes sur seine,77482,VARENNES-SUR-SEINE,77,SEINE-ET-MARNE,24.0,CRETEIL,11,ILE-DE-FRANCE,11,ILE-DE-FRANCE,531.0,114.0,142.0,150.0,125.0,0.0,0.0,0.0,0.0,0.0,18.0,21.0,0.0,0.0,0.0,531.0,80.0,26.0,109.0,2.9348861,48.3728532,2.9348860633926765,48.37285327761859,"48.3728532776,2.93488606339",94.3
1575,HEP,andre chenier,897048.9,6248983.8,NON,111.0,urbain,13055,marseille,13212,MARSEILLE 12E,13,BOUCHES-DU-RHONE,2.0,AIX-MARSEILLE,93,PROVENCE-ALPES-COTE D'AZUR,93,PROVENCE-ALPES-COTE-D'AZUR,562.0,142.0,154.0,137.0,129.0,0.0,0.0,0.0,0.0,0.0,13.0,21.0,96.0,0.0,0.0,562.0,91.0,33.0,130.0,5.4278860999999985,43.3127475,5.427886109480277,43.31274750210471,"43.3127475021,5.42788610948",94.5
1638,HEP,jean monnet,635649.7,6835942.4,NON,112.0,intermédiaire,91111,briis sous forges,91111,BRIIS-SOUS-FORGES,91,ESSONNE,25.0,VERSAILLES,11,ILE-DE-FRANCE,11,ILE-DE-FRANCE,483.0,131.0,109.0,116.0,127.0,0.0,0.0,0.0,0.0,0.0,13.0,18.0,0.0,0.0,0.0,483.0,82.0,20.0,115.0,2.1269176,48.620471,2.1269175570489587,48.62047106244128,"48.6204710624,2.12691755705",91.7
1283,REP,montesquieu,620426.6,6748601.2,NON,111.0,urbain,45234,orleans,45234,ORLEANS,45,LOIRET,18.0,ORLEANS-TOURS,24,CENTRE-VAL-DE-LOIRE,24,CENTRE-VAL-DE-LOIRE,527.0,134.0,128.0,85.0,116.0,5.0,16.0,16.0,15.0,52.0,27.0,28.0,0.0,0.0,0.0,463.0,59.0,20.0,93.0,1.9363602,47.8329821,1.9363601772405936,47.83298215598895,"47.832982156,1.93636017724",69.4
3945,HEP,francois mitterrand,686922.8,6173996.6,NON,111.0,urbain,66213,toulouges,66213,TOULOUGES,66,PYRENEES-ORIENTALES,11.0,MONTPELLIER,91,LANGUEDOC-ROUSSILLON,76,OCCITANIE,829.0,216.0,206.0,216.0,191.0,0.0,0.0,0.0,0.0,0.0,21.0,31.0,0.0,0.0,0.0,829.0,148.0,48.0,217.0,2.8406868,42.6654908,2.8406868494584088,42.66549086862005,"42.6654908686,2.84068684946",95.1
3363,HEP,le pre des roures,1022083.6,6294180.2,NON,111.0,urbain,06112,le rouret,06112,LE ROURET,06,ALPES-MARITIMES,23.0,NICE,93,PROVENCE-ALPES-COTE D'AZUR,93,PROVENCE-ALPES-COTE-D'AZUR,646.0,174.0,142.0,168.0,162.0,0.0,0.0,0.0,0.0,0.0,15.0,23.0,148.0,0.0,0.0,646.0,92.0,17.0,121.0,6.9945122,43.6733232,6.994512233411357,43.67332322602087,"43.673323226,6.99451223341",99.1
3739,HEP,leon blum,626562.3,6859508.8,NON,111.0,urbain,78674,villepreux,78674,VILLEPREUX,78,YVELINES,25.0,VERSAILLES,11,ILE-DE-FRANCE,11,ILE-DE-FRANCE,592.0,144.0,145.0,153.0,150.0,0.0,0.0,0.0,0.0,0.0,20.0,22.0,0.0,0.0,0.0,592.0,132.0,24.0,171.0,1.9995845,48.8314484,1.999584466976964,48.83144840641675,"48.8314484064,1.99958446698",82.2
1103,HEP,denfert rochereau,453592.8,6595121.8,NON,211.0,intermédiaire,79270,saint maixent lecole,79270,SAINT-MAIXENT-L'ECOLE,79,DEUX-SEVRES,13.0,POITIERS,54,POITOU-CHARENTES,75,NOUVELLE-AQUITAINE,580.0,126.0,121.0,141.0,126.0,14.0,16.0,13.0,12.0,55.0,22.0,25.0,0.0,39.0,0.0,514.0,77.0,41.0,123.0,-0.2086859,46.4109868,-0.20868594872684326,46.410986881549434,"46.4109868815,-0.208685948727",93.5
1897,HEP,camille guerin,314379.8,6800637.8,NON,221.0,intermédiaire,35297,saint meen le grand,35297,SAINT-MEEN-LE-GRAND,35,ILLE-ET-VILAINE,14.0,RENNES,53,BRETAGNE,53,BRETAGNE,406.0,95.0,117.0,88.0,106.0,0.0,0.0,0.0,0.0,0.0,10.0,16.0,0.0,0.0,0.0,406.0,61.0,19.0,120.0,-2.1931242,48.1919299,-2.1931242455940168,48.19192997546565,"48.1919299755,-2.19312424559",85.7
3502,REPPLUS,martin luther king,655089.9,6878553.9,NON,111.0,urbain,95680,villiers le bel,95680,VILLIERS-LE-BEL,95,VAL-D'OISE,25.0,VERSAILLES,11,ILE-DE-FRANCE,11,ILE-DE-FRANCE,521.0,162.0,131.0,99.0,125.0,0.0,0.0,0.0,0.0,0.0,39.0,21.0,0.0,25.0,0.0,517.0,74.0,49.0,125.0,2.3861684,49.005329,2.386168395253798,49.00532904998628,"49.00532905,2.38616839525",83.9
1517,HEP,de peranche,862616.5,6497226.7,NON,112.0,intermédiaire,38389,saint georges desperanche,38389,SAINT-GEORGES-D'ESPERANCHE,38,ISERE,8.0,GRENOBLE,82,RHONE-ALPES,84,AUVERGNE-ET-RHONE-ALPES,431.0,86.0,140.0,103.0,102.0,0.0,0.0,0.0,0.0,0.0,12.0,16.0,65.0,0.0,0.0,431.0,87.0,18.0,120.0,5.0845751,45.5552153,5.084575125717879,45.555215397622824,"45.5552153976,5.08457512572",96.7
3414,REP,mont sauvy,863404.3,6301504.7,NON,111.0,urbain,13067,orgon,13067,ORGON,13,BOUCHES-DU-RHONE,2.0,AIX-MARSEILLE,93,PROVENCE-ALPES-COTE D'AZUR,93,PROVENCE-ALPES-COTE-D'AZUR,574.0,119.0,136.0,136.0,130.0,14.0,18.0,12.0,9.0,53.0,23.0,27.0,53.0,12.0,0.0,521.0,76.0,18.0,109.0,5.0301771,43.7936522,5.030177143483892,43.79365221573822,"43.7936522157,5.03017714348",88.3
3013,HEP,jean dauzie,645244.4,6417900.9,NON,112.0,intermédiaire,15196,saint mamet la salvetat,15196,SAINT-MAMET-LA-SALVETAT,15,CANTAL,6.0,CLERMONT-FERRAND,83,AUVERGNE,84,AUVERGNE-ET-RHONE-ALPES,231.0,61.0,63.0,52.0,55.0,0.0,0.0,0.0,0.0,0.0,8.0,10.0,0.0,0.0,0.0,231.0,28.0,14.0,60.0,2.306873,44.8581182,2.306872965318985,44.85811829555047,"44.8581182956,2.30687296532",91.4
1352,REP,jean monnet,437554.4,6854842.4,NON,111.0,urbain,61169,flers,61169,FLERS,61,ORNE,5.0,CAEN,25,BASSE-NORMANDIE,28,NORMANDIE,402.0,80.0,82.0,76.0,78.0,8.0,26.0,24.0,12.0,70.0,19.0,22.0,56.0,22.0,14.0,316.0,51.0,16.0,76.0,-0.5700831000000001,48.7402956,-0.570083082053775,48.74029567015151,"48.7402956702,-0.570083082054",94.6
1793,HEP,les champs,807502.6,6485898.4,NON,111.0,urbain,42218,saint etienne,42218,SAINT-ETIENNE,42,LOIRE,10.0,LYON,82,RHONE-ALPES,84,AUVERGNE-ET-RHONE-ALPES,801.0,175.0,194.0,212.0,208.0,0.0,0.0,0.0,0.0,0.0,42.0,31.0,106.0,0.0,0.0,789.0,122.0,63.0,205.0,4.3757221,45.4641044,4.375722136124717,45.464104449165106,"45.4641044492,4.37572213612",81.9
3543,REPPLUS,diderot,806904.0,6304122.0,OUI,111.0,urbain,30189,nimes,30189,NIMES,30,GARD,11.0,MONTPELLIER,91,LANGUEDOC-ROUSSILLON,76,OCCITANIE,265.0,64.0,64.0,63.0,62.0,0.0,0.0,0.0,0.0,0.0,21.0,14.0,0.0,0.0,0.0,253.0,26.0,31.0,58.0,4.3289176,43.8280138,4.328917554045897,43.82801381277217,"43.8280138128,4.32891755405",64.8
3292,HEP,germaine tillion,896799.0,6248006.0,NON,111.0,urbain,13055,marseille,13212,MARSEILLE 12E,13,BOUCHES-DU-RHONE,2.0,AIX-MARSEILLE,93,PROVENCE-ALPES-COTE D'AZUR,93,PROVENCE-ALPES-COTE-D'AZUR,582.0,140.0,135.0,155.0,152.0,0.0,0.0,0.0,0.0,0.0,35.0,24.0,53.0,29.0,0.0,582.0,124.0,38.0,166.0,5.4244392,43.30402460000001,5.424439175986441,43.30402469897246,"43.304024699,5.42443917599",84.4
982,HEP,lis isclo dor,835565.0,6364767.8,NON,111.0,urbain,26235,pierrelatte,26235,PIERRELATTE,26,DROME,8.0,GRENOBLE,82,RHONE-ALPES,84,AUVERGNE-ET-RHONE-ALPES,563.0,124.0,132.0,104.0,128.0,9.0,15.0,13.0,16.0,53.0,25.0,23.0,154.0,0.0,0.0,488.0,82.0,25.0,120.0,4.7013440000000015,44.3688001,4.70134403686958,44.36880010446136,"44.3688001045,4.70134403687",86.9
456,HEP,jacques prevert,692964.5,6793029.9,NON,112.0,intermédiaire,77261,lorrez le bocage preaux,77261,LORREZ-LE-BOCAGE-PREAUX,77,SEINE-ET-MARNE,24.0,CRETEIL,11,ILE-DE-FRANCE,11,ILE-DE-FRANCE,505.0,139.0,108.0,128.0,130.0,0.0,0.0,0.0,0.0,0.0,17.0,21.0,0.0,0.0,0.0,505.0,86.0,38.0,129.0,2.9052397,48.2375758,2.9052396778938836,48.23757585864779,"48.2375758586,2.90523967789",86.8
2483,REP,camille claudel,561349.9,6927215.5,NON,111.0,urbain,76540,rouen,76540,ROUEN,76,SEINE MARITIME,21.0,ROUEN,23,HAUTE-NORMANDIE,28,NORMANDIE,441.0,112.0,118.0,111.0,100.0,0.0,0.0,0.0,0.0,0.0,26.0,19.0,0.0,0.0,0.0,441.0,65.0,37.0,114.0,1.0891657,49.4292874,1.0891656628493005,49.42928741250464,"49.4292874125,1.08916566285",87.3
